[
  {
    "id": 236043,
    "idExtended": "236043",
    "name": "Academy At Nola Dunn",
    "city": "Burleson",
    "state": "TX",
    "country": "US",
    "type": "K12",
    "latitude": 32.5405583,
    "longitude": -97.31792335184525
  },
  {
    "id": 186974,
    "idExtended": "186974",
    "name": "Academy At The Lakes",
    "city": "Land O Lakes",
    "state": "FL",
    "country": "US",
    "type": "K12",
    "latitude": 28.22138948841887,
    "longitude": -82.43719361618727
  },
  {
    "id": 158584,
    "idExtended": "158584",
    "name": "Academy Charter School",
    "city": "Hempstead",
    "state": "NY",
    "country": "US",
    "type": "K12",
    "latitude": 40.710316399999996,
    "longitude": -73.62858415090564
  },
  {
    "id": 244095,
    "idExtended": "244095",
    "name": "Academy Charter School",
    "city": "Castle Rock",
    "state": "CO",
    "country": "US",
    "type": "K12",
    "latitude": 39.383713150000005,
    "longitude": -104.87155745309643
  },
  {
    "id": 257861,
    "idExtended": "257861",
    "name": "Academy For Academic Excellence",
    "city": "Apple Valley",
    "state": "CA",
    "country": "US",
    "type": "K12",
    "latitude": 34.53288805,
    "longitude": -117.27900532686026
  },
  {
    "id": 3506660,
    "idExtended": "3506660",
    "name": "Academy For Academics And Arts",
    "city": "Huntsville",
    "state": "AL",
    "country": "US",
    "type": "K12",
    "latitude": 34.76022973555758,
    "longitude": -86.61931671698405
  },
  {
    "id": 3505197,
    "idExtended": "3505197",
    "name": "Academy For Classical Education",
    "city": "Macon",
    "state": "GA",
    "country": "US",
    "type": "K12",
    "latitude": 32.938469600000005,
    "longitude": -83.7291662018709
  },
  {
    "id": 219581,
    "idExtended": "219581",
    "name": "Academy For Global Citizenship",
    "city": "Chicago",
    "state": "IL",
    "country": "US",
    "type": "K12",
    "latitude": 41.807421500000004,
    "longitude": -87.74017717167854
  },
  {
    "id": 155202,
    "idExtended": "155202",
    "name": "Academy For Software Engineering",
    "city": "New York",
    "state": "NY",
    "country": "US",
    "type": "K12",
    "latitude": 40.7355392,
    "longitude": -73.9874498
  },
  {
    "id": 157034,
    "idExtended": "157034",
    "name": "Academy Of American Studies High School",
    "city": "Long Island City",
    "state": "NY",
    "country": "US",
    "type": "K12",
    "latitude": 40.76119885198095,
    "longitude": -73.81909416686601
  },
  {
    "id": 250232,
    "idExtended": "250232",
    "name": "Academy Of Math And Science",
    "city": "Tucson",
    "state": "AZ",
    "country": "US",
    "type": "K12",
    "latitude": 32.27208932849515,
    "longitude": -110.99089040579616
  },
  {
    "id": 3536462,
    "idExtended": "3536462",
    "name": "Academy Of Math And Science - Camelback",
    "city": "Phoenix",
    "state": "AZ",
    "country": "US",
    "type": "K12",
    "latitude": 33.5092234,
    "longitude": -112.202697
  },
  {
    "id": 4584472,
    "idExtended": "4584472",
    "name": "Academy Of Math And Science - Desert Sky",
    "city": "Phoenix",
    "state": "AZ",
    "country": "US",
    "type": "K12",
    "latitude": 33.464990900000004,
    "longitude": -112.1831633467751
  },
  {
    "id": 180575,
    "idExtended": "180575",
    "name": "Academy Of Richmond County High School",
    "city": "Augusta",
    "state": "GA",
    "country": "US",
    "type": "K12",
    "latitude": 33.476703444184785,
    "longitude": -82.00549388695624
  },
  {
    "id": 185816,
    "idExtended": "185816",
    "name": "Academy Of The Holy Names",
    "city": "Tampa",
    "state": "FL",
    "country": "US",
    "type": "K12",
    "latitude": 27.90719859312037,
    "longitude": -82.48980931619926
  },
  {
    "id": 228681,
    "idExtended": "228681",
    "name": "Academy Of The Sacred Heart",
    "city": "New Orleans",
    "state": "LA",
    "country": "US",
    "type": "K12",
    "latitude": 29.931933004466476,
    "longitude": -90.11942852741181
  },
  {
    "id": 165820,
    "idExtended": "165820",
    "name": "Academy Park High School",
    "city": "Sharon Hill",
    "state": "PA",
    "country": "US",
    "type": "K12",
    "latitude": 39.907600900000006,
    "longitude": -75.26823401372586
  },
  {
    "id": 3534943,
    "idExtended": "3534943",
    "name": "Academy School District 20",
    "city": "Colorado Springs",
    "state": "CO",
    "country": "US",
    "type": "K12",
    "latitude": 38.9542351,
    "longitude": -104.7911848
  },
  {
    "id": 10272495,
    "idExtended": "10272495",
    "name": "Academy for Innovative Education Charter School",
    "city": "Miami Springs",
    "state": "FL",
    "country": "US",
    "type": "K12",
    "latitude": 25.812551,
    "longitude": -80.274025
  },
  {
    "id": 189232,
    "idExtended": "189232",
    "name": "Acts Academy",
    "city": "Valley",
    "state": "AL",
    "country": "US",
    "type": "K12",
    "latitude": 32.81710798784761,
    "longitude": -85.17264674684698
  },
  {
    "id": 253545,
    "idExtended": "253545",
    "name": "Archer School For Girls, The",
    "city": "Los Angeles",
    "state": "CA",
    "country": "US",
    "type": "K12",
    "latitude": 34.0598508,
    "longitude": -118.47653855
  },
  {
    "id": 262322,
    "idExtended": "262322",
    "name": "Bay School Of San Francisco, The",
    "city": "San Francisco",
    "state": "CA",
    "country": "US",
    "type": "K12",
    "latitude": 37.80067055,
    "longitude": -122.45581683364826
  },
  {
    "id": 3490709,
    "idExtended": "3490709",
    "name": "Benjamin Franklin Classical Charter (District)",
    "city": "Franklin",
    "state": "MA",
    "country": "US",
    "type": "K12",
    "latitude": 42.089020250000004,
    "longitude": -71.40068851868541
  },
  {
    "id": 189233,
    "idExtended": "189233",
    "name": "Beulah Elementary School",
    "city": "Valley",
    "state": "AL",
    "country": "US",
    "type": "K12",
    "latitude": 33.774464,
    "longitude": -84.70328
  },
  {
    "id": 189234,
    "idExtended": "189234",
    "name": "Beulah High School",
    "city": "Valley",
    "state": "AL",
    "country": "US",
    "type": "K12",
    "latitude": 32.711323,
    "longitude": -85.18813
  },
  {
    "id": 189235,
    "idExtended": "189235",
    "name": "Bob Harding Shawmut Elementary",
    "city": "Valley",
    "state": "AL",
    "country": "US",
    "type": "K12",
    "latitude": 32.843555990621525,
    "longitude": -85.18332027690614
  },
  {
    "id": 167435,
    "idExtended": "167435",
    "name": "British School Of Washington",
    "city": "Washington",
    "state": "DC",
    "country": "US",
    "type": "K12",
    "latitude": 38.91655,
    "longitude": -77.068115
  },
  {
    "id": 237341,
    "idExtended": "237341",
    "name": "Brookhaven Youth Ranch",
    "city": "West",
    "state": "TX",
    "country": "US",
    "type": "K12"
  },
  {
    "id": 3540191,
    "idExtended": "3540191",
    "name": "California School For The Deaf - Riverside",
    "city": "Riverside",
    "state": "CA",
    "country": "US",
    "type": "K12",
    "latitude": 33.943071849999995,
    "longitude": -117.38094392211119
  },
  {
    "id": 161254,
    "idExtended": "161254",
    "name": "Catholic Academy Of Niagara Falls - Elementary",
    "city": "Niagara Falls",
    "state": "NY",
    "country": "US",
    "type": "K12",
    "latitude": 43.08658,
    "longitude": -78.9632
  },
  {
    "id": 161094,
    "idExtended": "161094",
    "name": "Catholic Academy Of West Buffalo",
    "city": "Buffalo",
    "state": "NY",
    "country": "US",
    "type": "K12",
    "latitude": 42.9127763,
    "longitude": -78.8679164
  },
  {
    "id": 10521194,
    "idExtended": "10521194",
    "name": "Catholic Academy of Bridgeport: St. Raphael Academy",
    "city": "Bridgeport",
    "state": "CT",
    "country": "US",
    "type": "K12",
    "latitude": 41.18791394182649,
    "longitude": -73.19622549790331
  },
  {
    "id": 10244756,
    "idExtended": "10244756",
    "name": "Catholic Academy of Waterbury",
    "city": "Waterbury",
    "state": "CT",
    "country": "US",
    "type": "K12",
    "latitude": 41.5570842,
    "longitude": -73.06352208658538
  },
  {
    "id": 206134,
    "idExtended": "206134",
    "name": "Catholic Central High School",
    "city": "Grand Rapids",
    "state": "MI",
    "country": "US",
    "type": "K12",
    "latitude": 42.94575777831485,
    "longitude": -85.6657033935924
  },
  {
    "id": 196330,
    "idExtended": "196330",
    "name": "Catholic Central High School",
    "city": "Steubenville",
    "state": "OH",
    "country": "US",
    "type": "K12",
    "latitude": 42.48955,
    "longitude": -83.53853
  },
  {
    "id": 199181,
    "idExtended": "199181",
    "name": "Catholic Central High School",
    "city": "Springfield",
    "state": "OH",
    "country": "US",
    "type": "K12",
    "latitude": 39.92113926132088,
    "longitude": -83.7864095310378
  },
  {
    "id": 159555,
    "idExtended": "159555",
    "name": "Catholic Central High School",
    "city": "Troy",
    "state": "NY",
    "country": "US",
    "type": "K12",
    "latitude": 42.77526635,
    "longitude": -73.67110878835922
  },
  {
    "id": 208737,
    "idExtended": "208737",
    "name": "Catholic Central High School",
    "city": "Burlington",
    "state": "WI",
    "country": "US",
    "type": "K12",
    "latitude": 42.66127674349904,
    "longitude": -88.28641447341019
  },
  {
    "id": 10282037,
    "idExtended": "10282037",
    "name": "Catholic Central School",
    "city": "Latham",
    "state": "NY",
    "country": "US",
    "type": "K12",
    "latitude": 42.7580579,
    "longitude": -73.75280628202758
  },
  {
    "id": 209167,
    "idExtended": "209167",
    "name": "Catholic East Elementary",
    "city": "Milwaukee",
    "state": "WI",
    "country": "US",
    "type": "K12",
    "latitude": 43.062937500000004,
    "longitude": -87.88583366596183
  },
  {
    "id": 229541,
    "idExtended": "229541",
    "name": "Catholic Elementary Of Pointe Coupee",
    "city": "New Roads",
    "state": "LA",
    "country": "US",
    "type": "K12",
    "latitude": 30.693827845922392,
    "longitude": -91.43980356236136
  },
  {
    "id": 229656,
    "idExtended": "229656",
    "name": "Catholic High School",
    "city": "Baton Rouge",
    "state": "LA",
    "country": "US",
    "type": "K12",
    "latitude": 30.438843346502036,
    "longitude": -91.15671810478274
  },
  {
    "id": 229266,
    "idExtended": "229266",
    "name": "Catholic High School",
    "city": "New Iberia",
    "state": "LA",
    "country": "US",
    "type": "K12",
    "latitude": 30.440691,
    "longitude": -91.15668
  },
  {
    "id": 230858,
    "idExtended": "230858",
    "name": "Catholic High School For Boys",
    "city": "Little Rock",
    "state": "AR",
    "country": "US",
    "type": "K12",
    "latitude": 34.7567294,
    "longitude": -92.3438322932324
  },
  {
    "id": 229542,
    "idExtended": "229542",
    "name": "Catholic High School Of Pointe Coupee",
    "city": "New Roads",
    "state": "LA",
    "country": "US",
    "type": "K12",
    "latitude": 30.69453,
    "longitude": -91.43769
  },
  {
    "id": 146184,
    "idExtended": "146184",
    "name": "Catholic Memorial",
    "city": "West Roxbury",
    "state": "MA",
    "country": "US",
    "type": "K12",
    "latitude": 42.27806505,
    "longitude": -71.16567184256425
  },
  {
    "id": 208986,
    "idExtended": "208986",
    "name": "Catholic Memorial High School",
    "city": "Waukesha",
    "state": "WI",
    "country": "US",
    "type": "K12",
    "latitude": 43.0022343,
    "longitude": -88.2203699
  },
  {
    "id": 3489902,
    "idExtended": "3489902",
    "name": "Catholic Schools Of Fairbanks",
    "city": "Fairbanks",
    "state": "AK",
    "country": "US",
    "type": "K12",
    "latitude": 64.84977186771818,
    "longitude": -147.71672631029645
  },
  {
    "id": 153239,
    "idExtended": "153239",
    "name": "Central",
    "city": "East Hanover",
    "state": "NJ",
    "country": "US",
    "type": "K12",
    "latitude": 40.83725195398329,
    "longitude": -74.34170392547948
  },
  {
    "id": 146492,
    "idExtended": "146492",
    "name": "Central",
    "city": "East Bridgewater",
    "state": "MA",
    "country": "US",
    "type": "K12",
    "latitude": 42.0298575,
    "longitude": -70.95679807465393
  },
  {
    "id": 152223,
    "idExtended": "152223",
    "name": "Central",
    "city": "Glen Rock",
    "state": "NJ",
    "country": "US",
    "type": "K12",
    "latitude": 40.9627405675136,
    "longitude": -74.1257686223667
  },
  {
    "id": 10524306,
    "idExtended": "10524306",
    "name": "Central",
    "city": "Central",
    "state": "TN",
    "country": "US",
    "type": "K12",
    "latitude": 36.3322315,
    "longitude": -82.28736882204612
  },
  {
    "id": 151463,
    "idExtended": "151463",
    "name": "Central",
    "city": "Warren",
    "state": "NJ",
    "country": "US",
    "type": "K12",
    "latitude": 40.82167417791254,
    "longitude": -74.90717303604474
  },
  {
    "id": 177919,
    "idExtended": "177919",
    "name": "Central Elementary",
    "city": "Central",
    "state": "SC",
    "country": "US",
    "type": "K12",
    "latitude": 34.73651355,
    "longitude": -82.77576124855239
  },
  {
    "id": 3491254,
    "idExtended": "3491254",
    "name": "Central Falls Public Schools",
    "city": "Central Falls",
    "state": "RI",
    "country": "US",
    "type": "K12",
    "latitude": 41.8858629135834,
    "longitude": -71.3960926295357
  },
  {
    "id": 10513971,
    "idExtended": "10513971",
    "name": "Central Intermediate School",
    "city": "Central",
    "state": "LA",
    "country": "US",
    "type": "K12",
    "latitude": 30.550065621755035,
    "longitude": -91.03256181458681
  },
  {
    "id": 3703997,
    "idExtended": "3703997",
    "name": "Central Islip Union Free School District",
    "city": "Central Islip",
    "state": "NY",
    "country": "US",
    "type": "K12",
    "latitude": 40.7928634,
    "longitude": -73.20543923411515
  },
  {
    "id": 3540596,
    "idExtended": "3540596",
    "name": "Charter Home School Academy",
    "city": "Visalia",
    "state": "CA",
    "country": "US",
    "type": "K12",
    "latitude": 36.3202256,
    "longitude": -119.313952
  },
  {
    "id": 10150485,
    "idExtended": "10150485",
    "name": "Charter Oak Elementary",
    "city": "Guthrie",
    "state": "OK",
    "country": "US",
    "type": "K12",
    "latitude": 35.87600509337562,
    "longitude": -97.41131033699286
  },
  {
    "id": 4584100,
    "idExtended": "4584100",
    "name": "Charter Oak Elementary",
    "city": "Temple",
    "state": "TX",
    "country": "US",
    "type": "K12",
    "latitude": 31.093686397458924,
    "longitude": -97.43657459074967
  },
  {
    "id": 255970,
    "idExtended": "255970",
    "name": "Charter Oak High School",
    "city": "Covina",
    "state": "CA",
    "country": "US",
    "type": "K12",
    "latitude": 34.09794095,
    "longitude": -117.85995331397193
  },
  {
    "id": 10052988,
    "idExtended": "10052988",
    "name": "Charter Oak International Academy",
    "city": "West Hartford",
    "state": "CT",
    "country": "US",
    "type": "K12",
    "latitude": 41.7434686,
    "longitude": -72.7220153996254
  },
  {
    "id": 220994,
    "idExtended": "220994",
    "name": "Charter Oak Primary School",
    "city": "Peoria",
    "state": "IL",
    "country": "US",
    "type": "K12",
    "latitude": 40.756792,
    "longitude": -89.67443857300793
  },
  {
    "id": 3539590,
    "idExtended": "3539590",
    "name": "Charter Oak Unified School District",
    "city": "Covina",
    "state": "CA",
    "country": "US",
    "type": "K12",
    "latitude": 34.10304340852127,
    "longitude": -117.86800273619102
  },
  {
    "id": 3514416,
    "idExtended": "3514416",
    "name": "Charter Oak-Ute Community School District",
    "city": "Charter Oak",
    "state": "IA",
    "country": "US",
    "type": "K12",
    "latitude": 42.06696557701007,
    "longitude": -95.59123819773923
  },
  {
    "id": 3505832,
    "idExtended": "3505832",
    "name": "Charter School Associates",
    "city": "Coral Springs",
    "state": "FL",
    "country": "US",
    "type": "K12",
    "latitude": 26.298644490867396,
    "longitude": -80.25057221329473
  },
  {
    "id": 161081,
    "idExtended": "161081",
    "name": "Charter School For Applied Technologies",
    "city": "Buffalo",
    "state": "NY",
    "country": "US",
    "type": "K12",
    "latitude": 42.9654805,
    "longitude": -78.8966782
  },
  {
    "id": 156656,
    "idExtended": "156656",
    "name": "Charter School Of Educational Excellence",
    "city": "Yonkers",
    "state": "NY",
    "country": "US",
    "type": "K12",
    "latitude": 40.94420835,
    "longitude": -73.89669350174515
  },
  {
    "id": 184856,
    "idExtended": "184856",
    "name": "Charter School Of Excellence",
    "city": "Fort Lauderdale",
    "state": "FL",
    "country": "US",
    "type": "K12",
    "latitude": 26.105638950408505,
    "longitude": -80.13996781522255
  },
  {
    "id": 3497769,
    "idExtended": "3497769",
    "name": "Charter School Of Inquiry",
    "city": "Buffalo",
    "state": "NY",
    "country": "US",
    "type": "K12",
    "latitude": 42.9343278,
    "longitude": -78.8022603
  },
  {
    "id": 264006,
    "idExtended": "264006",
    "name": "Charter School Of Morgan Hill",
    "city": "Morgan Hill",
    "state": "CA",
    "country": "US",
    "type": "K12",
    "latitude": 37.1536386,
    "longitude": -121.67470775
  },
  {
    "id": 3501041,
    "idExtended": "3501041",
    "name": "Charter School Of New Castle",
    "city": "New Castle",
    "state": "DE",
    "country": "US",
    "type": "K12",
    "latitude": 39.68486240268102,
    "longitude": -75.544817422307
  },
  {
    "id": 257420,
    "idExtended": "257420",
    "name": "Charter School Of San Diego",
    "city": "San Diego",
    "state": "CA",
    "country": "US",
    "type": "K12",
    "latitude": 32.90274925,
    "longitude": -117.18412752951531
  },
  {
    "id": 200606,
    "idExtended": "200606",
    "name": "Charter School Of The Dunes",
    "city": "Gary",
    "state": "IN",
    "country": "US",
    "type": "K12",
    "latitude": 41.5964717,
    "longitude": -87.24902684853168
  },
  {
    "id": 167204,
    "idExtended": "167204",
    "name": "Charter School Of Wilmington",
    "city": "Wilmington",
    "state": "DE",
    "country": "US",
    "type": "K12",
    "latitude": 39.7538891,
    "longitude": -75.5870119
  },
  {
    "id": 3495626,
    "idExtended": "3495626",
    "name": "Charter Shigh School For Law And Social Justice",
    "city": "Bronx",
    "state": "NY",
    "country": "US",
    "type": "K12"
  },
  {
    "id": 3494711,
    "idExtended": "3494711",
    "name": "Charter Tech High School For The Performing Arts",
    "city": "Somers Point",
    "state": "NJ",
    "country": "US",
    "type": "K12",
    "latitude": 39.311084945904966,
    "longitude": -74.61425978476852
  },
  {
    "id": 201527,
    "idExtended": "201527",
    "name": "Christian Academy Of Indiana",
    "city": "New Albany",
    "state": "IN",
    "country": "US",
    "type": "K12",
    "latitude": 38.3255755,
    "longitude": -85.8285992
  },
  {
    "id": 190871,
    "idExtended": "190871",
    "name": "Christian Academy Of Knoxville",
    "city": "Knoxville",
    "state": "TN",
    "country": "US",
    "type": "K12",
    "latitude": 35.9249102,
    "longitude": -84.10568240866228
  },
  {
    "id": 3548334,
    "idExtended": "3548334",
    "name": "Christian Academy Of Myrtle Beach",
    "city": "Myrtle Beach",
    "state": "SC",
    "country": "US",
    "type": "K12",
    "latitude": 33.73737075,
    "longitude": -78.94025923162644
  },
  {
    "id": 266332,
    "idExtended": "266332",
    "name": "Christian Brothers",
    "city": "Sacramento",
    "state": "CA",
    "country": "US",
    "type": "K12",
    "latitude": 38.52086594911884,
    "longitude": -121.46463932181487
  },
  {
    "id": 152847,
    "idExtended": "152847",
    "name": "Christian Brothers Academy",
    "city": "Lincroft",
    "state": "NJ",
    "country": "US",
    "type": "K12",
    "latitude": 40.3365129,
    "longitude": -74.13835844189772
  },
  {
    "id": 160402,
    "idExtended": "160402",
    "name": "Christian Brothers Academy",
    "city": "Syracuse",
    "state": "NY",
    "country": "US",
    "type": "K12",
    "latitude": 43.032658,
    "longitude": -76.08771772901297
  },
  {
    "id": 223230,
    "idExtended": "223230",
    "name": "Christian Brothers College High School",
    "city": "Saint Louis",
    "state": "MO",
    "country": "US",
    "type": "K12",
    "latitude": 38.639810100000005,
    "longitude": -90.46050992547507
  },
  {
    "id": 191266,
    "idExtended": "191266",
    "name": "Christian Brothers High School",
    "city": "Memphis",
    "state": "TN",
    "country": "US",
    "type": "K12",
    "latitude": 35.134384939609056,
    "longitude": -89.83200292061504
  },
  {
    "id": 228773,
    "idExtended": "228773",
    "name": "Christian Brothers School",
    "city": "New Orleans",
    "state": "LA",
    "country": "US",
    "type": "K12",
    "latitude": 29.988506,
    "longitude": -90.09159
  },
  {
    "id": 4584426,
    "idExtended": "4584426",
    "name": "Christian Center School",
    "city": "Hayden",
    "state": "ID",
    "country": "US",
    "type": "K12",
    "latitude": 47.74447590094721,
    "longitude": -116.78847243914834
  },
  {
    "id": 224905,
    "idExtended": "224905",
    "name": "Christian Chapel Academy",
    "city": "Columbia",
    "state": "MO",
    "country": "US",
    "type": "K12",
    "latitude": 38.927718049999996,
    "longitude": -92.3390516
  },
  {
    "id": 194639,
    "idExtended": "194639",
    "name": "Christian County High School",
    "city": "Hopkinsville",
    "state": "KY",
    "country": "US",
    "type": "K12",
    "latitude": 36.878632214443975,
    "longitude": -87.4943137703525
  },
  {
    "id": 194640,
    "idExtended": "194640",
    "name": "Christian County Middle School",
    "city": "Hopkinsville",
    "state": "KY",
    "country": "US",
    "type": "K12",
    "latitude": 36.878632214443975,
    "longitude": -87.4943137703525
  },
  {
    "id": 3508219,
    "idExtended": "3508219",
    "name": "Christian County Public Schools",
    "city": "Hopkinsville",
    "state": "KY",
    "country": "US",
    "type": "K12",
    "latitude": 36.878632214443975,
    "longitude": -87.4943137703525
  },
  {
    "id": 3521494,
    "idExtended": "3521494",
    "name": "Christian Ebinger Elementary School",
    "city": "Chicago",
    "state": "IL",
    "country": "US",
    "type": "K12",
    "latitude": 42.004810649999996,
    "longitude": -87.8104076136693
  },
  {
    "id": 224906,
    "idExtended": "224906",
    "name": "Christian Fellowship School",
    "city": "Columbia",
    "state": "MO",
    "country": "US",
    "type": "K12",
    "latitude": 38.954600799999994,
    "longitude": -92.40326206665549
  },
  {
    "id": 231925,
    "idExtended": "231925",
    "name": "Christian Heritage Academy",
    "city": "Oklahoma City",
    "state": "OK",
    "country": "US",
    "type": "K12",
    "latitude": 35.43706776679582,
    "longitude": -97.48490057109599
  },
  {
    "id": 217134,
    "idExtended": "217134",
    "name": "Christian Heritage Academy",
    "city": "Winnetka",
    "state": "IL",
    "country": "US",
    "type": "K12",
    "latitude": 42.10045,
    "longitude": -87.79738
  },
  {
    "id": 235361,
    "idExtended": "235361",
    "name": "Christian Heritage School",
    "city": "Longview",
    "state": "TX",
    "country": "US",
    "type": "K12",
    "latitude": 32.588611099999994,
    "longitude": -94.78213615738235
  },
  {
    "id": 3548510,
    "idExtended": "3548510",
    "name": "Christian Heritage School Inc",
    "city": "Dalton",
    "state": "GA",
    "country": "US",
    "type": "K12",
    "latitude": 34.7760725,
    "longitude": -84.93917717273419
  },
  {
    "id": 216479,
    "idExtended": "216479",
    "name": "Christian Liberty Academy",
    "city": "Arlington Heights",
    "state": "IL",
    "country": "US",
    "type": "K12",
    "latitude": 42.08827449856846,
    "longitude": -87.99121841636708
  },
  {
    "id": 3552893,
    "idExtended": "3552893",
    "name": "Christian Life Preparatory School",
    "city": "Fort Worth",
    "state": "TX",
    "country": "US",
    "type": "K12",
    "latitude": 32.64393473296571,
    "longitude": -97.40869598816748
  },
  {
    "id": 208846,
    "idExtended": "208846",
    "name": "Christian Life School",
    "city": "Kenosha",
    "state": "WI",
    "country": "US",
    "type": "K12",
    "latitude": 42.56756405,
    "longitude": -87.95683679999999
  },
  {
    "id": 10000229,
    "idExtended": "10000229",
    "name": "Christian Unified Schools of San Diego",
    "city": "El Cajon",
    "state": "CA",
    "country": "US",
    "type": "K12",
    "latitude": 32.80063925,
    "longitude": -116.90403049399802
  },
  {
    "id": 3703841,
    "idExtended": "3703841",
    "name": "College Achieve Central Charter School",
    "city": "Plainfield",
    "state": "NJ",
    "country": "US",
    "type": "K12",
    "latitude": 40.63459446670168,
    "longitude": -74.40718187322983
  },
  {
    "id": 3493871,
    "idExtended": "3493871",
    "name": "College Achieve Paterson Charter School",
    "city": "Paterson",
    "state": "NJ",
    "country": "US",
    "type": "K12",
    "latitude": 40.91620516459727,
    "longitude": -74.17355868461583
  },
  {
    "id": 3530005,
    "idExtended": "3530005",
    "name": "College Bound Academy Charter",
    "city": "Tulsa",
    "state": "OK",
    "country": "US",
    "type": "K12",
    "latitude": 36.125183199999995,
    "longitude": -95.86318035843378
  },
  {
    "id": 3514595,
    "idExtended": "3514595",
    "name": "College Community School District",
    "city": "Cedar Rapids",
    "state": "IA",
    "country": "US",
    "type": "K12",
    "latitude": 41.903318,
    "longitude": -91.66925002321128
  },
  {
    "id": 168546,
    "idExtended": "168546",
    "name": "College Gardens Elementary",
    "city": "Rockville",
    "state": "MD",
    "country": "US",
    "type": "K12",
    "latitude": 39.10311240758452,
    "longitude": -77.16210385026542
  },
  {
    "id": 189423,
    "idExtended": "189423",
    "name": "College Grove Elementary",
    "city": "College Grove",
    "state": "TN",
    "country": "US",
    "type": "K12",
    "latitude": 35.78904251995025,
    "longitude": -86.69874293119969
  },
  {
    "id": 260543,
    "idExtended": "260543",
    "name": "College Heights Elementary",
    "city": "Bakersfield",
    "state": "CA",
    "country": "US",
    "type": "K12",
    "latitude": 35.395747546202806,
    "longitude": -118.97190529525228
  },
  {
    "id": 239922,
    "idExtended": "239922",
    "name": "College Hills Elementary",
    "city": "College Station",
    "state": "TX",
    "country": "US",
    "type": "K12",
    "latitude": 30.626006480948273,
    "longitude": -96.31998251514965
  },
  {
    "id": 252455,
    "idExtended": "252455",
    "name": "College Of Southern Nevada Highschool",
    "city": "Las Vegas",
    "state": "NV",
    "country": "US",
    "type": "K12",
    "latitude": 36.1554376,
    "longitude": -115.2319570120324
  },
  {
    "id": 258825,
    "idExtended": "258825",
    "name": "College Park Elementary",
    "city": "Irvine",
    "state": "CA",
    "country": "US",
    "type": "K12",
    "latitude": 33.70574535,
    "longitude": -117.79284192880559
  },
  {
    "id": 10047954,
    "idExtended": "10047954",
    "name": "College Park Elementary School",
    "city": "Ladson",
    "state": "SC",
    "country": "US",
    "type": "K12",
    "latitude": 33.01640975,
    "longitude": -80.0910145753591
  },
  {
    "id": 3502361,
    "idExtended": "3502361",
    "name": "College Park Elementary School",
    "city": "Virginia Beach",
    "state": "VA",
    "country": "US",
    "type": "K12",
    "latitude": 36.808443505101735,
    "longitude": -76.21142632015302
  },
  {
    "id": 3544356,
    "idExtended": "3544356",
    "name": "College Place School District",
    "city": "College Place",
    "state": "WA",
    "country": "US",
    "type": "K12",
    "latitude": 46.0475271572606,
    "longitude": -118.38853105065711
  },
  {
    "id": 239929,
    "idExtended": "239929",
    "name": "College Station High School",
    "city": "College Station",
    "state": "TX",
    "country": "US",
    "type": "K12",
    "latitude": 30.558173500000002,
    "longitude": -96.2872563562938
  },
  {
    "id": 3532948,
    "idExtended": "3532948",
    "name": "College Station Independent School District",
    "city": "College Station",
    "state": "TX",
    "country": "US",
    "type": "K12",
    "latitude": 30.602032063904396,
    "longitude": -96.32973963072882
  },
  {
    "id": 239930,
    "idExtended": "239930",
    "name": "College Station Middle School",
    "city": "College Station",
    "state": "TX",
    "country": "US",
    "type": "K12",
    "latitude": 30.586100352633984,
    "longitude": -96.28236143020148
  },
  {
    "id": 3531235,
    "idExtended": "3531235",
    "name": "College Street Elementary",
    "city": "Lindale",
    "state": "TX",
    "country": "US",
    "type": "K12",
    "latitude": 32.5160543,
    "longitude": -95.41302861928949
  },
  {
    "id": 190136,
    "idExtended": "190136",
    "name": "College Street Elementary",
    "city": "Manchester",
    "state": "TN",
    "country": "US",
    "type": "K12",
    "latitude": 35.47832151229401,
    "longitude": -86.08282500718823
  },
  {
    "id": 194696,
    "idExtended": "194696",
    "name": "College View Middle School",
    "city": "Owensboro",
    "state": "KY",
    "country": "US",
    "type": "K12",
    "latitude": 37.71385635,
    "longitude": -87.0754981727413
  },
  {
    "id": 199628,
    "idExtended": "199628",
    "name": "College Wood Elementary School",
    "city": "Carmel",
    "state": "IN",
    "country": "US",
    "type": "K12",
    "latitude": 39.941515414778806,
    "longitude": -86.22234933259764
  },
  {
    "id": 272012,
    "idExtended": "272012",
    "name": "Columbia Virtual Academy",
    "city": "Valley",
    "state": "WA",
    "country": "US",
    "type": "K12",
    "latitude": 48.184656396759095,
    "longitude": -117.7157311282892
  },
  {
    "id": 10071542,
    "idExtended": "10071542",
    "name": "Compass Academy",
    "city": "Forest",
    "state": "VA",
    "country": "US",
    "type": "K12",
    "latitude": 31.914818,
    "longitude": -102.30484
  },
  {
    "id": 3507227,
    "idExtended": "3507227",
    "name": "Cornerstone Prep Denver Campus",
    "city": "Memphis",
    "state": "TN",
    "country": "US",
    "type": "K12",
    "latitude": 35.21765575,
    "longitude": -90.0059938
  },
  {
    "id": 151979,
    "idExtended": "151979",
    "name": "County Prep High School",
    "city": "Jersey City",
    "state": "NJ",
    "country": "US",
    "type": "K12",
    "latitude": 40.7212945,
    "longitude": -74.05893229692609
  },
  {
    "id": 177920,
    "idExtended": "177920",
    "name": "D W Daniel High School",
    "city": "Central",
    "state": "SC",
    "country": "US",
    "type": "K12",
    "latitude": 34.7388521,
    "longitude": -82.83316202988502
  },
  {
    "id": 3495474,
    "idExtended": "3495474",
    "name": "Democracy Prep Public Schools",
    "city": "New York",
    "state": "NY",
    "country": "US",
    "type": "K12",
    "latitude": 40.81317,
    "longitude": -73.93761
  },
  {
    "id": 227285,
    "idExtended": "227285",
    "name": "Douglas Co West Elementary School",
    "city": "Valley",
    "state": "NE",
    "country": "US",
    "type": "K12",
    "latitude": 41.3105301,
    "longitude": -96.34282843899678
  },
  {
    "id": 227286,
    "idExtended": "227286",
    "name": "Douglas Co West High School",
    "city": "Valley",
    "state": "NE",
    "country": "US",
    "type": "K12",
    "latitude": 41.30949805,
    "longitude": -96.3420769504561
  },
  {
    "id": 3527166,
    "idExtended": "3527166",
    "name": "Douglas County West Community Schools",
    "city": "Valley",
    "state": "NE",
    "country": "US",
    "type": "K12",
    "latitude": 41.30949805,
    "longitude": -96.3420769504561
  },
  {
    "id": 176922,
    "idExtended": "176922",
    "name": "Dover Elementary School",
    "city": "North",
    "state": "SC",
    "country": "US",
    "type": "K12",
    "latitude": 33.61483727895847,
    "longitude": -81.10473359938219
  },
  {
    "id": 3497678,
    "idExtended": "3497678",
    "name": "East Aurora Union Free School District",
    "city": "East Aurora",
    "state": "NY",
    "country": "US",
    "type": "K12",
    "latitude": 42.768664400000006,
    "longitude": -78.61897004290003
  },
  {
    "id": 146138,
    "idExtended": "146138",
    "name": "East Boston High School",
    "city": "East Boston",
    "state": "MA",
    "country": "US",
    "type": "K12",
    "latitude": 42.38122825,
    "longitude": -71.03493910610311
  },
  {
    "id": 154685,
    "idExtended": "154685",
    "name": "East Brunswick High School",
    "city": "East Brunswick",
    "state": "NJ",
    "country": "US",
    "type": "K12",
    "latitude": 40.432571949999996,
    "longitude": -74.39856546847048
  },
  {
    "id": 3495019,
    "idExtended": "3495019",
    "name": "East Brunswick Township School District",
    "city": "East Brunswick",
    "state": "NJ",
    "country": "US",
    "type": "K12",
    "latitude": 40.47260015,
    "longitude": -74.40915899999999
  },
  {
    "id": 176565,
    "idExtended": "176565",
    "name": "East Franklin Elementary",
    "city": "Franklin",
    "state": "NC",
    "country": "US",
    "type": "K12",
    "latitude": 35.19001147631344,
    "longitude": -83.37040102347173
  },
  {
    "id": 3497153,
    "idExtended": "3497153",
    "name": "East Greenbush Central School District",
    "city": "East Greenbush",
    "state": "NY",
    "country": "US",
    "type": "K12",
    "latitude": 42.60072145,
    "longitude": -73.70720017851482
  },
  {
    "id": 159308,
    "idExtended": "159308",
    "name": "East Hampton High School",
    "city": "East Hampton",
    "state": "NY",
    "country": "US",
    "type": "K12",
    "latitude": 40.971827000000005,
    "longitude": -72.20022347667955
  },
  {
    "id": 150203,
    "idExtended": "150203",
    "name": "East Hampton High School",
    "city": "East Hampton",
    "state": "CT",
    "country": "US",
    "type": "K12",
    "latitude": 41.58290425,
    "longitude": -72.51457636668908
  },
  {
    "id": 150204,
    "idExtended": "150204",
    "name": "East Hampton Middle School",
    "city": "East Hampton",
    "state": "CT",
    "country": "US",
    "type": "K12",
    "latitude": 41.568392450000005,
    "longitude": -72.52433929008366
  },
  {
    "id": 149915,
    "idExtended": "149915",
    "name": "East Hartford High School",
    "city": "East Hartford",
    "state": "CT",
    "country": "US",
    "type": "K12",
    "latitude": 41.7549041,
    "longitude": -72.60559934989332
  },
  {
    "id": 149845,
    "idExtended": "149845",
    "name": "East Hartford Middle School",
    "city": "East Hartford",
    "state": "CT",
    "country": "US",
    "type": "K12",
    "latitude": 41.7785246,
    "longitude": -72.60368945634193
  },
  {
    "id": 150463,
    "idExtended": "150463",
    "name": "East Haven High School",
    "city": "East Haven",
    "state": "CT",
    "country": "US",
    "type": "K12",
    "latitude": 41.329906699999995,
    "longitude": -72.83153525098547
  },
  {
    "id": 3508956,
    "idExtended": "3508956",
    "name": "East Liverpool City School District",
    "city": "East Liverpool",
    "state": "OH",
    "country": "US",
    "type": "K12",
    "latitude": 40.6238051,
    "longitude": -80.5879124
  },
  {
    "id": 150030,
    "idExtended": "150030",
    "name": "East Lyme High School",
    "city": "East Lyme",
    "state": "CT",
    "country": "US",
    "type": "K12",
    "latitude": 41.3691291,
    "longitude": -72.2126246
  },
  {
    "id": 158621,
    "idExtended": "158621",
    "name": "East Meadow High School",
    "city": "East Meadow",
    "state": "NY",
    "country": "US",
    "type": "K12",
    "latitude": 40.7295019,
    "longitude": -73.55800968739403
  },
  {
    "id": 151160,
    "idExtended": "151160",
    "name": "East Orange Campus High School",
    "city": "East Orange",
    "state": "NJ",
    "country": "US",
    "type": "K12",
    "latitude": 40.77641775,
    "longitude": -74.20752681948335
  },
  {
    "id": 3703823,
    "idExtended": "3703823",
    "name": "East Orange School District",
    "city": "East Orange",
    "state": "NJ",
    "country": "US",
    "type": "K12",
    "latitude": 40.766339966164296,
    "longitude": -74.19922568882147
  },
  {
    "id": 3524795,
    "idExtended": "3524795",
    "name": "East Prairie R-Ii School District",
    "city": "East Prairie",
    "state": "MO",
    "country": "US",
    "type": "K12",
    "latitude": 36.77579145382057,
    "longitude": -89.37899883471752
  },
  {
    "id": 147496,
    "idExtended": "147496",
    "name": "East Providence High School",
    "city": "East Providence",
    "state": "RI",
    "country": "US",
    "type": "K12",
    "latitude": 41.8191257,
    "longitude": -71.35328037719815
  },
  {
    "id": 3497107,
    "idExtended": "3497107",
    "name": "East Quogue Union Free School District",
    "city": "East Quogue",
    "state": "NY",
    "country": "US",
    "type": "K12",
    "latitude": 40.84527865,
    "longitude": -72.58640785507501
  },
  {
    "id": 3523050,
    "idExtended": "3523050",
    "name": "East St Louis School District 189",
    "city": "East Saint Louis",
    "state": "IL",
    "country": "US",
    "type": "K12",
    "latitude": 38.6249656,
    "longitude": -90.1499926
  },
  {
    "id": 3499940,
    "idExtended": "3499940",
    "name": "East Stroudsburg Area School District",
    "city": "East Stroudsburg",
    "state": "PA",
    "country": "US",
    "type": "K12",
    "latitude": 41.00465119289845,
    "longitude": -75.18428009894633
  },
  {
    "id": 3497427,
    "idExtended": "3497427",
    "name": "East Syracuse-Minoa Central School District",
    "city": "East Syracuse",
    "state": "NY",
    "country": "US",
    "type": "K12",
    "latitude": 43.06591455,
    "longitude": -76.03087893802544
  },
  {
    "id": 189236,
    "idExtended": "189236",
    "name": "Fairfax Elementary School",
    "city": "Valley",
    "state": "AL",
    "country": "US",
    "type": "K12",
    "latitude": 32.7924267011993,
    "longitude": -85.18717917928043
  },
  {
    "id": 192251,
    "idExtended": "192251",
    "name": "Forest Elementary School",
    "city": "Forest",
    "state": "MS",
    "country": "US",
    "type": "K12",
    "latitude": 32.370966075959515,
    "longitude": -89.48493033903524
  },
  {
    "id": 3502970,
    "idExtended": "3502970",
    "name": "Forest Elementary School",
    "city": "Forest",
    "state": "VA",
    "country": "US",
    "type": "K12",
    "latitude": 37.3760741,
    "longitude": -79.30815332477414
  },
  {
    "id": 192252,
    "idExtended": "192252",
    "name": "Forest High School",
    "city": "Forest",
    "state": "MS",
    "country": "US",
    "type": "K12",
    "latitude": 32.370966075959515,
    "longitude": -89.48493033903524
  },
  {
    "id": 158234,
    "idExtended": "158234",
    "name": "Forest Hills High School",
    "city": "Forest Hills",
    "state": "NY",
    "country": "US",
    "type": "K12",
    "latitude": 40.73228096430109,
    "longitude": -73.84666600519618
  },
  {
    "id": 3515846,
    "idExtended": "3515846",
    "name": "Forest Lake Public School District",
    "city": "Forest Lake",
    "state": "MN",
    "country": "US",
    "type": "K12",
    "latitude": 45.25410569427251,
    "longitude": -93.00559730272666
  },
  {
    "id": 172610,
    "idExtended": "172610",
    "name": "Forest Middle School",
    "city": "Forest",
    "state": "VA",
    "country": "US",
    "type": "K12",
    "latitude": 37.368796,
    "longitude": -79.31000372227052
  },
  {
    "id": 3507479,
    "idExtended": "3507479",
    "name": "Forest Municipal School District",
    "city": "Forest",
    "state": "MS",
    "country": "US",
    "type": "K12",
    "latitude": 32.370966075959515,
    "longitude": -89.48493033903524
  },
  {
    "id": 192253,
    "idExtended": "192253",
    "name": "Forest Scott Co Voc Tech Center",
    "city": "Forest",
    "state": "MS",
    "country": "US",
    "type": "K12",
    "latitude": 32.370966075959515,
    "longitude": -89.48493033903524
  },
  {
    "id": 151258,
    "idExtended": "151258",
    "name": "Franklin",
    "city": "Kearny",
    "state": "NJ",
    "country": "US",
    "type": "K12",
    "latitude": 40.7683447,
    "longitude": -74.1396863
  },
  {
    "id": 152595,
    "idExtended": "152595",
    "name": "Franklin",
    "city": "Saddle Brook",
    "state": "NJ",
    "country": "US",
    "type": "K12",
    "latitude": 40.893457999999995,
    "longitude": -74.09641609427358
  },
  {
    "id": 3498900,
    "idExtended": "3498900",
    "name": "Franklin Area School District",
    "city": "Franklin",
    "state": "PA",
    "country": "US",
    "type": "K12",
    "latitude": 41.39867425845965,
    "longitude": -79.83740395527101
  },
  {
    "id": 3493776,
    "idExtended": "3493776",
    "name": "Franklin Borough School District",
    "city": "Franklin",
    "state": "NJ",
    "country": "US",
    "type": "K12",
    "latitude": 41.1164148,
    "longitude": -74.58087855
  },
  {
    "id": 3510044,
    "idExtended": "3510044",
    "name": "Franklin City School District",
    "city": "Franklin",
    "state": "OH",
    "country": "US",
    "type": "K12",
    "latitude": 39.55691640455262,
    "longitude": -84.30418027638552
  },
  {
    "id": 3510847,
    "idExtended": "3510847",
    "name": "Franklin Community School Corporation",
    "city": "Franklin",
    "state": "IN",
    "country": "US",
    "type": "K12",
    "latitude": 39.48893364097908,
    "longitude": -86.06391292002684
  },
  {
    "id": 189459,
    "idExtended": "189459",
    "name": "Franklin Elementary School",
    "city": "Franklin",
    "state": "TN",
    "country": "US",
    "type": "K12",
    "latitude": 35.90968859837518,
    "longitude": -86.88516865029897
  },
  {
    "id": 194566,
    "idExtended": "194566",
    "name": "Franklin Elementary School",
    "city": "Franklin",
    "state": "KY",
    "country": "US",
    "type": "K12",
    "latitude": 36.69295033504812,
    "longitude": -86.57016164831641
  },
  {
    "id": 10049628,
    "idExtended": "10049628",
    "name": "Franklin Elementary School",
    "city": "Santa Barbara",
    "state": "CA",
    "country": "US",
    "type": "K12",
    "latitude": 34.4252841,
    "longitude": -119.6775134
  },
  {
    "id": 189460,
    "idExtended": "189460",
    "name": "Franklin High School",
    "city": "Franklin",
    "state": "TN",
    "country": "US",
    "type": "K12",
    "latitude": 35.94124055,
    "longitude": -86.87702380899567
  },
  {
    "id": 145880,
    "idExtended": "145880",
    "name": "Franklin High School",
    "city": "Franklin",
    "state": "MA",
    "country": "US",
    "type": "K12",
    "latitude": 42.0933471,
    "longitude": -71.40884101114742
  },
  {
    "id": 208818,
    "idExtended": "208818",
    "name": "Franklin High School",
    "city": "Franklin",
    "state": "WI",
    "country": "US",
    "type": "K12",
    "latitude": 42.89730659999999,
    "longitude": -87.97768346015533
  },
  {
    "id": 3532956,
    "idExtended": "3532956",
    "name": "Franklin Independent School District",
    "city": "Franklin",
    "state": "TX",
    "country": "US",
    "type": "K12",
    "latitude": 31.026150073922324,
    "longitude": -96.48818519724873
  },
  {
    "id": 3514835,
    "idExtended": "3514835",
    "name": "Franklin Public School District",
    "city": "Franklin",
    "state": "WI",
    "country": "US",
    "type": "K12",
    "latitude": 42.8939443,
    "longitude": -88.01866806136869
  },
  {
    "id": 3490708,
    "idExtended": "3490708",
    "name": "Franklin Public Schools",
    "city": "Franklin",
    "state": "MA",
    "country": "US",
    "type": "K12",
    "latitude": 42.86641,
    "longitude": -88.03142
  },
  {
    "id": 3506906,
    "idExtended": "3506906",
    "name": "Franklin Special School District",
    "city": "Franklin",
    "state": "TN",
    "country": "US",
    "type": "K12",
    "latitude": 35.92476,
    "longitude": -86.88252
  },
  {
    "id": 3528381,
    "idExtended": "3528381",
    "name": "Geo Prep Academy Of Greater Baton Rouge",
    "city": "Baton Rouge",
    "state": "LA",
    "country": "US",
    "type": "K12",
    "latitude": 30.484697231916936,
    "longitude": -91.0754052725706
  },
  {
    "id": 167997,
    "idExtended": "167997",
    "name": "Goddard School Of Waldorf, The",
    "city": "Waldorf",
    "state": "MD",
    "country": "US",
    "type": "K12",
    "latitude": 38.6177512,
    "longitude": -76.9658217
  },
  {
    "id": 10522796,
    "idExtended": "10522796",
    "name": "HILL",
    "city": "Cherry Hill",
    "state": "NJ",
    "country": "US",
    "type": "K12",
    "latitude": 39.9348351,
    "longitude": -75.0307264
  },
  {
    "id": 169134,
    "idExtended": "169134",
    "name": "Harbour School At Baltimore, The",
    "city": "Owings Mills",
    "state": "MD",
    "country": "US",
    "type": "K12",
    "latitude": 39.4213957,
    "longitude": -76.806413
  },
  {
    "id": 192254,
    "idExtended": "192254",
    "name": "Hawkins Middle School",
    "city": "Forest",
    "state": "MS",
    "country": "US",
    "type": "K12",
    "latitude": 32.360018481561056,
    "longitude": -89.4653757787888
  },
  {
    "id": 3553891,
    "idExtended": "3553891",
    "name": "Heights Christian Junior High, The",
    "city": "La Mirada",
    "state": "CA",
    "country": "US",
    "type": "K12",
    "latitude": 33.92134872721804,
    "longitude": -118.00892340217696
  },
  {
    "id": 3511579,
    "idExtended": "3511579",
    "name": "Heth Washington Elementary School",
    "city": "Central",
    "state": "IN",
    "country": "US",
    "type": "K12",
    "latitude": 38.10067417679574,
    "longitude": -86.19023015189505
  },
  {
    "id": 154762,
    "idExtended": "154762",
    "name": "High Bridge Elementary School",
    "city": "High Bridge",
    "state": "NJ",
    "country": "US",
    "type": "K12",
    "latitude": 40.6691937,
    "longitude": -74.89229
  },
  {
    "id": 236534,
    "idExtended": "236534",
    "name": "High Country Elementary",
    "city": "Fort Worth",
    "state": "TX",
    "country": "US",
    "type": "K12"
  },
  {
    "id": 3707747,
    "idExtended": "3707747",
    "name": "High Desert Education Service District",
    "city": "Redmond",
    "state": "OR",
    "country": "US",
    "type": "K12",
    "latitude": 44.2544554,
    "longitude": -121.16789656059177
  },
  {
    "id": 3523131,
    "idExtended": "3523131",
    "name": "High Mount School District 116",
    "city": "Belleville",
    "state": "IL",
    "country": "US",
    "type": "K12",
    "latitude": 38.532284,
    "longitude": -89.99534
  },
  {
    "id": 152115,
    "idExtended": "152115",
    "name": "High Mountain Road",
    "city": "Franklin Lakes",
    "state": "NJ",
    "country": "US",
    "type": "K12",
    "latitude": 40.98602914867416,
    "longitude": -74.20790638188669
  },
  {
    "id": 145361,
    "idExtended": "145361",
    "name": "High Plain Elementary",
    "city": "Andover",
    "state": "MA",
    "country": "US",
    "type": "K12",
    "latitude": 42.65971200957445,
    "longitude": -71.18824019346818
  },
  {
    "id": 3534762,
    "idExtended": "3534762",
    "name": "High Plains School",
    "city": "Loveland",
    "state": "CO",
    "country": "US",
    "type": "K12",
    "latitude": 40.41539545,
    "longitude": -105.02014687761681
  },
  {
    "id": 4582094,
    "idExtended": "4582094",
    "name": "High Point Academy",
    "city": "Spartanburg",
    "state": "SC",
    "country": "US",
    "type": "K12",
    "latitude": 34.98499,
    "longitude": -82.02323505639046
  },
  {
    "id": 173842,
    "idExtended": "173842",
    "name": "High Point Christian Academy",
    "city": "High Point",
    "state": "NC",
    "country": "US",
    "type": "K12",
    "latitude": 35.95027726490871,
    "longitude": -80.0259112612178
  },
  {
    "id": 179909,
    "idExtended": "179909",
    "name": "High Point Elementary School",
    "city": "Atlanta",
    "state": "GA",
    "country": "US",
    "type": "K12",
    "latitude": 27.909662,
    "longitude": -82.714226
  },
  {
    "id": 3526189,
    "idExtended": "3526189",
    "name": "High Pointe Elementary School",
    "city": "Nixa",
    "state": "MO",
    "country": "US",
    "type": "K12",
    "latitude": 37.05599975,
    "longitude": -93.26363606369844
  },
  {
    "id": 158167,
    "idExtended": "158167",
    "name": "High School For Arts And Business",
    "city": "Corona",
    "state": "NY",
    "country": "US",
    "type": "K12",
    "latitude": 40.737637,
    "longitude": -73.85341
  },
  {
    "id": 155319,
    "idExtended": "155319",
    "name": "High School For Environmental Studies",
    "city": "New York",
    "state": "NY",
    "country": "US",
    "type": "K12",
    "latitude": 40.7679539,
    "longitude": -73.9881627
  },
  {
    "id": 155267,
    "idExtended": "155267",
    "name": "High School For Fashion Industries",
    "city": "New York",
    "state": "NY",
    "country": "US",
    "type": "K12",
    "latitude": 40.7456576,
    "longitude": -73.99636039184628
  },
  {
    "id": 3495506,
    "idExtended": "3495506",
    "name": "High School For Health Careers And Sciences",
    "city": "New York",
    "state": "NY",
    "country": "US",
    "type": "K12",
    "latitude": 40.8555093,
    "longitude": -73.92626344709743
  },
  {
    "id": 144616,
    "idExtended": "144616",
    "name": "High School Of Commerce",
    "city": "Springfield",
    "state": "MA",
    "country": "US",
    "type": "K12",
    "latitude": 42.10654995,
    "longitude": -72.57651273970976
  },
  {
    "id": 157658,
    "idExtended": "157658",
    "name": "High School Of Telecommunications",
    "city": "Brooklyn",
    "state": "NY",
    "country": "US",
    "type": "K12",
    "latitude": 40.6367173,
    "longitude": -74.0232522420016
  },
  {
    "id": 182796,
    "idExtended": "182796",
    "name": "High Springs Community School",
    "city": "High Springs",
    "state": "FL",
    "country": "US",
    "type": "K12",
    "latitude": 29.83704201730704,
    "longitude": -82.59106518214132
  },
  {
    "id": 3539859,
    "idExtended": "3539859",
    "name": "High Tech Elementary",
    "city": "San Diego",
    "state": "CA",
    "country": "US",
    "type": "K12",
    "latitude": 32.73440763572377,
    "longitude": -117.21477234061416
  },
  {
    "id": 179214,
    "idExtended": "179214",
    "name": "Hill City Elementary School",
    "city": "Jasper",
    "state": "GA",
    "country": "US",
    "type": "K12",
    "latitude": 34.47283,
    "longitude": -84.51792
  },
  {
    "id": 226965,
    "idExtended": "226965",
    "name": "Hill City Elementary School",
    "city": "Hill City",
    "state": "KS",
    "country": "US",
    "type": "K12",
    "latitude": 39.36975588648199,
    "longitude": -99.84593133574181
  },
  {
    "id": 3518139,
    "idExtended": "3518139",
    "name": "Hill City Elementary School 02",
    "city": "Hill City",
    "state": "SD",
    "country": "US",
    "type": "K12",
    "latitude": 43.93031053909034,
    "longitude": -103.5757347936965
  },
  {
    "id": 3516561,
    "idExtended": "3516561",
    "name": "Hill City Independent School District # 2",
    "city": "Hill City",
    "state": "MN",
    "country": "US",
    "type": "K12",
    "latitude": 46.99316977350462,
    "longitude": -93.5926970299148
  },
  {
    "id": 3518138,
    "idExtended": "3518138",
    "name": "Hill City School District 51-2",
    "city": "Hill City",
    "state": "SD",
    "country": "US",
    "type": "K12",
    "latitude": 43.93031053909034,
    "longitude": -103.5757347936965
  },
  {
    "id": 242426,
    "idExtended": "242426",
    "name": "Hill Country Christian School Of Austin",
    "city": "Austin",
    "state": "TX",
    "country": "US",
    "type": "K12",
    "latitude": 30.443398600000002,
    "longitude": -97.8331711
  },
  {
    "id": 242393,
    "idExtended": "242393",
    "name": "Hill Country Middle School",
    "city": "Austin",
    "state": "TX",
    "country": "US",
    "type": "K12",
    "latitude": 30.27105315,
    "longitude": -97.8033888525922
  },
  {
    "id": 3539824,
    "idExtended": "3539824",
    "name": "Hill Creek Elementary School",
    "city": "Santee",
    "state": "CA",
    "country": "US",
    "type": "K12",
    "latitude": 32.85697324812146,
    "longitude": -116.9636235502324
  },
  {
    "id": 242503,
    "idExtended": "242503",
    "name": "Hill Elementary",
    "city": "Austin",
    "state": "TX",
    "country": "US",
    "type": "K12",
    "latitude": 30.3763243,
    "longitude": -97.74861776511233
  },
  {
    "id": 235947,
    "idExtended": "235947",
    "name": "Hill Elementary",
    "city": "Arlington",
    "state": "TX",
    "country": "US",
    "type": "K12",
    "latitude": 32.712847499999995,
    "longitude": -97.14039068200552
  },
  {
    "id": 10039412,
    "idExtended": "10039412",
    "name": "Hill Elementary School",
    "city": "Houston",
    "state": "TX",
    "country": "US",
    "type": "K12",
    "latitude": 33.754253,
    "longitude": -117.96067
  },
  {
    "id": 202675,
    "idExtended": "202675",
    "name": "Hill Elementary School",
    "city": "Troy",
    "state": "MI",
    "country": "US",
    "type": "K12",
    "latitude": 42.58662325,
    "longitude": -83.0957602887395
  },
  {
    "id": 230604,
    "idExtended": "230604",
    "name": "Hill Farm Elementary School",
    "city": "Bryant",
    "state": "AR",
    "country": "US",
    "type": "K12",
    "latitude": 34.59813558819466,
    "longitude": -92.49416560821726
  },
  {
    "id": 185799,
    "idExtended": "185799",
    "name": "Hill Middle School",
    "city": "Tampa",
    "state": "FL",
    "country": "US",
    "type": "K12",
    "latitude": 37.55464,
    "longitude": -97.13351
  },
  {
    "id": 150528,
    "idExtended": "150528",
    "name": "Hill Regional Career High School",
    "city": "New Haven",
    "state": "CT",
    "country": "US",
    "type": "K12",
    "latitude": 41.305627,
    "longitude": -72.94106160341263
  },
  {
    "id": 146892,
    "idExtended": "146892",
    "name": "Hill Roberts Elementary School",
    "city": "Attleboro",
    "state": "MA",
    "country": "US",
    "type": "K12",
    "latitude": 41.91773415,
    "longitude": -71.3481371134223
  },
  {
    "id": 3491587,
    "idExtended": "3491587",
    "name": "Hill Sau 103 Office",
    "city": "Hill",
    "state": "NH",
    "country": "US",
    "type": "K12",
    "latitude": 43.521728949999996,
    "longitude": -71.70066162471338
  },
  {
    "id": 145426,
    "idExtended": "145426",
    "name": "Hill View Montessori Charter Public School",
    "city": "Haverhill",
    "state": "MA",
    "country": "US",
    "type": "K12",
    "latitude": 42.76621315,
    "longitude": -71.11976337834021
  },
  {
    "id": 236150,
    "idExtended": "236150",
    "name": "Iuniversity Prep",
    "city": "Grapevine",
    "state": "TX",
    "country": "US",
    "type": "K12",
    "latitude": 32.92089035,
    "longitude": -97.11548067676102
  },
  {
    "id": 10209013,
    "idExtended": "10209013",
    "name": "James Madison Middle School",
    "city": "Appleton",
    "state": "WI",
    "country": "US",
    "type": "K12",
    "latitude": 44.24299666022258,
    "longitude": -88.39291659379991
  },
  {
    "id": 152438,
    "idExtended": "152438",
    "name": "Jefferson",
    "city": "Bergenfield",
    "state": "NJ",
    "country": "US",
    "type": "K12",
    "latitude": 40.9321244,
    "longitude": -73.98695964284559
  },
  {
    "id": 151552,
    "idExtended": "151552",
    "name": "Jefferson",
    "city": "Lyndhurst",
    "state": "NJ",
    "country": "US",
    "type": "K12",
    "latitude": 40.81832129573082,
    "longitude": -74.12238047684059
  },
  {
    "id": 180229,
    "idExtended": "180229",
    "name": "Jefferson Academy",
    "city": "Jefferson",
    "state": "GA",
    "country": "US",
    "type": "K12",
    "latitude": 34.11914520453855,
    "longitude": -83.58709759433789
  },
  {
    "id": 3509066,
    "idExtended": "3509066",
    "name": "Jefferson Area Local School District",
    "city": "Jefferson",
    "state": "OH",
    "country": "US",
    "type": "K12",
    "latitude": 41.73679014223756,
    "longitude": -80.7797343332003
  },
  {
    "id": 159482,
    "idExtended": "159482",
    "name": "Jefferson Central School",
    "city": "Jefferson",
    "state": "NY",
    "country": "US",
    "type": "K12",
    "latitude": 42.48179,
    "longitude": -74.60773
  },
  {
    "id": 3505048,
    "idExtended": "3505048",
    "name": "Jefferson City School District",
    "city": "Jefferson",
    "state": "GA",
    "country": "US",
    "type": "K12",
    "latitude": 34.1508128437965,
    "longitude": -83.60580969261684
  },
  {
    "id": 7115382,
    "idExtended": "7115382",
    "name": "Jefferson Elementary",
    "city": "Jefferson",
    "state": "LA",
    "country": "US",
    "type": "K12",
    "latitude": 29.9614924,
    "longitude": -90.1665249
  },
  {
    "id": 180230,
    "idExtended": "180230",
    "name": "Jefferson Elementary School",
    "city": "Jefferson",
    "state": "GA",
    "country": "US",
    "type": "K12",
    "latitude": 34.12366405,
    "longitude": -83.58555582587891
  },
  {
    "id": 178157,
    "idExtended": "178157",
    "name": "Jefferson Elementary School",
    "city": "Jefferson",
    "state": "SC",
    "country": "US",
    "type": "K12",
    "latitude": 34.65000258319039,
    "longitude": -80.39530705552461
  },
  {
    "id": 268725,
    "idExtended": "268725",
    "name": "Jefferson Elementary School",
    "city": "Jefferson",
    "state": "OR",
    "country": "US",
    "type": "K12",
    "latitude": 44.72565519698939,
    "longitude": -123.01026823058342
  },
  {
    "id": 172611,
    "idExtended": "172611",
    "name": "Jefferson Forest High",
    "city": "Forest",
    "state": "VA",
    "country": "US",
    "type": "K12",
    "latitude": 37.37685985,
    "longitude": -79.30452489367812
  },
  {
    "id": 180231,
    "idExtended": "180231",
    "name": "Jefferson High School",
    "city": "Jefferson",
    "state": "GA",
    "country": "US",
    "type": "K12",
    "latitude": 34.12842202229687,
    "longitude": -83.58501500450433
  },
  {
    "id": 209618,
    "idExtended": "209618",
    "name": "Jefferson High School",
    "city": "Jefferson",
    "state": "WI",
    "country": "US",
    "type": "K12",
    "latitude": 43.0038981,
    "longitude": -88.81979622240485
  },
  {
    "id": 3531162,
    "idExtended": "3531162",
    "name": "Jefferson Independent School District",
    "city": "Jefferson",
    "state": "TX",
    "country": "US",
    "type": "K12",
    "latitude": 32.76930634566195,
    "longitude": -94.35855782126391
  },
  {
    "id": 235443,
    "idExtended": "235443",
    "name": "Jefferson Junior High School",
    "city": "Jefferson",
    "state": "TX",
    "country": "US",
    "type": "K12",
    "latitude": 32.766236572811785,
    "longitude": -94.35138874526822
  },
  {
    "id": 180232,
    "idExtended": "180232",
    "name": "Jefferson Middle School",
    "city": "Jefferson",
    "state": "GA",
    "country": "US",
    "type": "K12",
    "latitude": 34.11962125,
    "longitude": -83.58960998068639
  },
  {
    "id": 209619,
    "idExtended": "209619",
    "name": "Jefferson Middle School",
    "city": "Jefferson",
    "state": "WI",
    "country": "US",
    "type": "K12",
    "latitude": 43.0036474355429,
    "longitude": -88.82176642232939
  },
  {
    "id": 3498451,
    "idExtended": "3498451",
    "name": "Jefferson Morgan Elementary School",
    "city": "Jefferson",
    "state": "PA",
    "country": "US",
    "type": "K12",
    "latitude": 39.929715968734385,
    "longitude": -80.06064454084182
  },
  {
    "id": 3705450,
    "idExtended": "3705450",
    "name": "Jefferson School District",
    "city": "Jefferson",
    "state": "WI",
    "country": "US",
    "type": "K12",
    "latitude": 43.0036474355429,
    "longitude": -88.82176642232939
  },
  {
    "id": 148661,
    "idExtended": "148661",
    "name": "Jefferson Village School",
    "city": "Jefferson",
    "state": "ME",
    "country": "US",
    "type": "K12",
    "latitude": 44.20465475,
    "longitude": -69.45659861433242
  },
  {
    "id": 147864,
    "idExtended": "147864",
    "name": "Jennie D Blake School",
    "city": "Hill",
    "state": "NH",
    "country": "US",
    "type": "K12",
    "latitude": 43.521728949999996,
    "longitude": -71.70066162471338
  },
  {
    "id": 10272775,
    "idExtended": "10272775",
    "name": "Kaleo Academy",
    "city": "Schertz",
    "state": "TX",
    "country": "US",
    "type": "K12",
    "latitude": 29.5574626859473,
    "longitude": -98.27424026850784
  },
  {
    "id": 10522621,
    "idExtended": "10522621",
    "name": "Kennedy",
    "city": "Kennedy",
    "state": "NE",
    "country": "US",
    "type": "K12",
    "latitude": 42.5472257,
    "longitude": -100.8168113
  },
  {
    "id": 262025,
    "idExtended": "262025",
    "name": "Kennedy (John F.) Middle School",
    "city": "Redwood City",
    "state": "CA",
    "country": "US",
    "type": "K12",
    "latitude": 37.48777641893251,
    "longitude": -122.23231047836008
  },
  {
    "id": 10523025,
    "idExtended": "10523025",
    "name": "Kennedy Children'S Center",
    "city": "New York",
    "state": "NY",
    "country": "US",
    "type": "K12"
  },
  {
    "id": 213814,
    "idExtended": "213814",
    "name": "Kennedy Community School",
    "city": "Saint Joseph",
    "state": "MN",
    "country": "US",
    "type": "K12",
    "latitude": 45.54209285,
    "longitude": -94.304441565215
  },
  {
    "id": 237797,
    "idExtended": "237797",
    "name": "Kennedy Elementary",
    "city": "Houston",
    "state": "TX",
    "country": "US",
    "type": "K12",
    "latitude": 29.83484875,
    "longitude": -95.39344123802226
  },
  {
    "id": 213583,
    "idExtended": "213583",
    "name": "Kennedy Elementary",
    "city": "Willmar",
    "state": "MN",
    "country": "US",
    "type": "K12",
    "latitude": 45.12165074918177,
    "longitude": -95.05252220032986
  },
  {
    "id": 209847,
    "idExtended": "209847",
    "name": "Kennedy Elementary",
    "city": "Madison",
    "state": "WI",
    "country": "US",
    "type": "K12",
    "latitude": 43.09144406191409,
    "longitude": -89.29737577917201
  },
  {
    "id": 264620,
    "idExtended": "264620",
    "name": "Kennedy Elementary",
    "city": "Stockton",
    "state": "CA",
    "country": "US",
    "type": "K12",
    "latitude": 38.02955985,
    "longitude": -121.31830078988473
  },
  {
    "id": 215061,
    "idExtended": "215061",
    "name": "Kennedy Elementary School",
    "city": "Fargo",
    "state": "ND",
    "country": "US",
    "type": "K12",
    "latitude": 46.80048542584973,
    "longitude": -96.85036927536726
  },
  {
    "id": 180364,
    "idExtended": "180364",
    "name": "Kennedy Elementary School",
    "city": "Winder",
    "state": "GA",
    "country": "US",
    "type": "K12",
    "latitude": 37.270695,
    "longitude": -97.38416
  },
  {
    "id": 203056,
    "idExtended": "203056",
    "name": "Kennedy Elementary School",
    "city": "Livonia",
    "state": "MI",
    "country": "US",
    "type": "K12",
    "latitude": 42.386548397361295,
    "longitude": -83.36361736333822
  },
  {
    "id": 231767,
    "idExtended": "231767",
    "name": "Kennedy Elementary School",
    "city": "Norman",
    "state": "OK",
    "country": "US",
    "type": "K12",
    "latitude": 35.2103533,
    "longitude": -97.41826135989567
  },
  {
    "id": 257667,
    "idExtended": "257667",
    "name": "Kennedy Gardens Elementary",
    "city": "Calexico",
    "state": "CA",
    "country": "US",
    "type": "K12",
    "latitude": 32.67598069077216,
    "longitude": -115.49628832855251
  },
  {
    "id": 218735,
    "idExtended": "218735",
    "name": "Kennedy Junior High School",
    "city": "Lisle",
    "state": "IL",
    "country": "US",
    "type": "K12",
    "latitude": 41.76280505,
    "longitude": -88.10784172088393
  },
  {
    "id": 3536051,
    "idExtended": "3536051",
    "name": "Kennedy Junior High School",
    "city": "West Valley City",
    "state": "UT",
    "country": "US",
    "type": "K12",
    "latitude": 40.67255695,
    "longitude": -111.99187995
  },
  {
    "id": 169669,
    "idExtended": "169669",
    "name": "Kennedy Krieger School",
    "city": "Baltimore",
    "state": "MD",
    "country": "US",
    "type": "K12",
    "latitude": 39.293139350000004,
    "longitude": -76.59230785618266
  },
  {
    "id": 169360,
    "idExtended": "169360",
    "name": "Kennedy Krieger School Greenspring Campus",
    "city": "Baltimore",
    "state": "MD",
    "country": "US",
    "type": "K12",
    "latitude": 39.33353475,
    "longitude": -76.65424776955886
  },
  {
    "id": 208441,
    "idExtended": "208441",
    "name": "Kennedy Middle School",
    "city": "Germantown",
    "state": "WI",
    "country": "US",
    "type": "K12",
    "latitude": 43.2328908,
    "longitude": -88.1067044
  },
  {
    "id": 241704,
    "idExtended": "241704",
    "name": "Kennedy Middle School",
    "city": "Pharr",
    "state": "TX",
    "country": "US",
    "type": "K12",
    "latitude": 26.16949365,
    "longitude": -98.19434650149397
  },
  {
    "id": 220409,
    "idExtended": "220409",
    "name": "Kennedy Middle School",
    "city": "Rockford",
    "state": "IL",
    "country": "US",
    "type": "K12",
    "latitude": 42.2828985,
    "longitude": -89.13759791697352
  },
  {
    "id": 213979,
    "idExtended": "213979",
    "name": "Kennedy Secondary School",
    "city": "Fergus Falls",
    "state": "MN",
    "country": "US",
    "type": "K12",
    "latitude": 46.2904571,
    "longitude": -96.06442974670014
  },
  {
    "id": 212696,
    "idExtended": "212696",
    "name": "Kennedy Senior High School",
    "city": "Minneapolis",
    "state": "MN",
    "country": "US",
    "type": "K12",
    "latitude": 44.94749919752949,
    "longitude": -93.27794739651333
  },
  {
    "id": 189237,
    "idExtended": "189237",
    "name": "Lafayette Lanier Elementary School",
    "city": "Valley",
    "state": "AL",
    "country": "US",
    "type": "K12",
    "latitude": 32.82948895544259,
    "longitude": -85.17541301131178
  },
  {
    "id": 3519629,
    "idExtended": "3519629",
    "name": "Lake Bluff Elementary School",
    "city": "Lake Bluff",
    "state": "IL",
    "country": "US",
    "type": "K12",
    "latitude": 42.282155955441205,
    "longitude": -87.85191104627184
  },
  {
    "id": 181543,
    "idExtended": "181543",
    "name": "Lake Butler Elementary School",
    "city": "Lake Butler",
    "state": "FL",
    "country": "US",
    "type": "K12",
    "latitude": 30.017692532771143,
    "longitude": -82.35004544339172
  },
  {
    "id": 229391,
    "idExtended": "229391",
    "name": "Lake Charles Charter Academy",
    "city": "Lake Charles",
    "state": "LA",
    "country": "US",
    "type": "K12",
    "latitude": 30.18611085,
    "longitude": -93.17123593521313
  },
  {
    "id": 3507488,
    "idExtended": "3507488",
    "name": "Lake Elementary",
    "city": "Lake",
    "state": "MS",
    "country": "US",
    "type": "K12",
    "latitude": 32.347109596968984,
    "longitude": -89.32681575970257
  },
  {
    "id": 3540196,
    "idExtended": "3540196",
    "name": "Lake Elsinore Unified School District",
    "city": "Lake Elsinore",
    "state": "CA",
    "country": "US",
    "type": "K12",
    "latitude": 33.6769788467141,
    "longitude": -117.34426629380842
  },
  {
    "id": 216756,
    "idExtended": "216756",
    "name": "Lake Forest Academy",
    "city": "Lake Forest",
    "state": "IL",
    "country": "US",
    "type": "K12",
    "latitude": 42.23989304452198,
    "longitude": -87.86524053922199
  },
  {
    "id": 216757,
    "idExtended": "216757",
    "name": "Lake Forest Country Day School",
    "city": "Lake Forest",
    "state": "IL",
    "country": "US",
    "type": "K12",
    "latitude": 42.2367394,
    "longitude": -87.8364742731326
  },
  {
    "id": 258939,
    "idExtended": "258939",
    "name": "Lake Forest Elementary",
    "city": "Lake Forest",
    "state": "CA",
    "country": "US",
    "type": "K12",
    "latitude": 33.6449791,
    "longitude": -117.6713648208042
  },
  {
    "id": 216758,
    "idExtended": "216758",
    "name": "Lake Forest High School",
    "city": "Lake Forest",
    "state": "IL",
    "country": "US",
    "type": "K12",
    "latitude": 42.2650484,
    "longitude": -87.84026090887448
  },
  {
    "id": 3507487,
    "idExtended": "3507487",
    "name": "Lake High School",
    "city": "Lake",
    "state": "MS",
    "country": "US",
    "type": "K12",
    "latitude": 41.559456,
    "longitude": -83.471375
  },
  {
    "id": 182948,
    "idExtended": "182948",
    "name": "Lake Mary Elementary School",
    "city": "Lake Mary",
    "state": "FL",
    "country": "US",
    "type": "K12",
    "latitude": 28.7661473,
    "longitude": -81.32212985
  },
  {
    "id": 182949,
    "idExtended": "182949",
    "name": "Lake Mary High School",
    "city": "Lake Mary",
    "state": "FL",
    "country": "US",
    "type": "K12",
    "latitude": 28.7364253,
    "longitude": -81.33619340861162
  },
  {
    "id": 192272,
    "idExtended": "192272",
    "name": "Lake Middle School",
    "city": "Lake",
    "state": "MS",
    "country": "US",
    "type": "K12",
    "latitude": 44.90403,
    "longitude": -92.92687
  },
  {
    "id": 203977,
    "idExtended": "203977",
    "name": "Lake Orion Community High School",
    "city": "Lake Orion",
    "state": "MI",
    "country": "US",
    "type": "K12",
    "latitude": 42.7486326701339,
    "longitude": -83.285661413595
  },
  {
    "id": 3512689,
    "idExtended": "3512689",
    "name": "Lake Orion Community Schools",
    "city": "Lake Orion",
    "state": "MI",
    "country": "US",
    "type": "K12",
    "latitude": 42.786074697471186,
    "longitude": -83.240842
  },
  {
    "id": 3543031,
    "idExtended": "3543031",
    "name": "Lake Oswego School District 7J",
    "city": "Lake Oswego",
    "state": "OR",
    "country": "US",
    "type": "K12",
    "latitude": 45.42388976600677,
    "longitude": -122.69846101528108
  },
  {
    "id": 186197,
    "idExtended": "186197",
    "name": "Lake Region High School",
    "city": "Eagle Lake",
    "state": "FL",
    "country": "US",
    "type": "K12",
    "latitude": 27.9775278,
    "longitude": -81.74858219264911
  },
  {
    "id": 3543721,
    "idExtended": "3543721",
    "name": "Lake Stevens School District",
    "city": "Lake Stevens",
    "state": "WA",
    "country": "US",
    "type": "K12",
    "latitude": 48.0174595,
    "longitude": -122.064232
  },
  {
    "id": 3519658,
    "idExtended": "3519658",
    "name": "Lake Zurich Community Unit School District 95",
    "city": "Lake Zurich",
    "state": "IL",
    "country": "US",
    "type": "K12",
    "latitude": 42.18516175,
    "longitude": -88.08636153700559
  },
  {
    "id": 216787,
    "idExtended": "216787",
    "name": "Lake Zurich High School",
    "city": "Lake Zurich",
    "state": "IL",
    "country": "US",
    "type": "K12",
    "latitude": 42.2042161,
    "longitude": -88.08308743265941
  },
  {
    "id": 233744,
    "idExtended": "233744",
    "name": "Leadership Prep School",
    "city": "Frisco",
    "state": "TX",
    "country": "US",
    "type": "K12",
    "latitude": 33.1491511,
    "longitude": -96.8629695
  },
  {
    "id": 152185,
    "idExtended": "152185",
    "name": "Lincoln",
    "city": "Pompton Lakes",
    "state": "NJ",
    "country": "US",
    "type": "K12",
    "latitude": 40.992398699999995,
    "longitude": -74.28307542440277
  },
  {
    "id": 152439,
    "idExtended": "152439",
    "name": "Lincoln",
    "city": "Bergenfield",
    "state": "NJ",
    "country": "US",
    "type": "K12",
    "latitude": 40.919038706066345,
    "longitude": -74.00745567800146
  },
  {
    "id": 152420,
    "idExtended": "152420",
    "name": "Lincoln",
    "city": "Hasbrouck Heights",
    "state": "NJ",
    "country": "US",
    "type": "K12",
    "latitude": 40.87046685,
    "longitude": -74.0650445
  },
  {
    "id": 147253,
    "idExtended": "147253",
    "name": "Lincoln Central Elementary School",
    "city": "Lincoln",
    "state": "RI",
    "country": "US",
    "type": "K12",
    "latitude": 41.9286192,
    "longitude": -71.44588343811571
  },
  {
    "id": 3529137,
    "idExtended": "3529137",
    "name": "Lincoln Consolidated School District",
    "city": "Lincoln",
    "state": "AR",
    "country": "US",
    "type": "K12",
    "latitude": 35.95431830982656,
    "longitude": -94.41995344976226
  },
  {
    "id": 227754,
    "idExtended": "227754",
    "name": "Lincoln East High School",
    "city": "Lincoln",
    "state": "NE",
    "country": "US",
    "type": "K12",
    "latitude": 40.80344465,
    "longitude": -96.62230416611439
  },
  {
    "id": 10000072,
    "idExtended": "10000072",
    "name": "Lincoln Elementary",
    "city": "Salt Lake City",
    "state": "UT",
    "country": "US",
    "type": "K12",
    "latitude": 40.6905105,
    "longitude": -111.87980727793155
  },
  {
    "id": 227755,
    "idExtended": "227755",
    "name": "Lincoln High School",
    "city": "Lincoln",
    "state": "NE",
    "country": "US",
    "type": "K12",
    "latitude": 40.80641704999999,
    "longitude": -96.68855188576333
  },
  {
    "id": 265916,
    "idExtended": "265916",
    "name": "Lincoln High School",
    "city": "Lincoln",
    "state": "CA",
    "country": "US",
    "type": "K12",
    "latitude": 38.88917969999993,
    "longitude": -121.2966021
  },
  {
    "id": 227734,
    "idExtended": "227734",
    "name": "Lincoln Northeast High School",
    "city": "Lincoln",
    "state": "NE",
    "country": "US",
    "type": "K12",
    "latitude": 40.84134365,
    "longitude": -96.63609300305524
  },
  {
    "id": 10152685,
    "idExtended": "10152685",
    "name": "Lincoln Northwest High School",
    "city": "Lincoln",
    "state": "NE",
    "country": "US",
    "type": "K12",
    "latitude": 40.8267861,
    "longitude": -96.78902682622875
  },
  {
    "id": 3706531,
    "idExtended": "3706531",
    "name": "Lincoln Public Schools",
    "city": "Lincoln",
    "state": "NE",
    "country": "US",
    "type": "K12",
    "latitude": 40.8129136,
    "longitude": -96.64075085165376
  },
  {
    "id": 3490532,
    "idExtended": "3490532",
    "name": "Lincoln Public Schools",
    "city": "Lincoln",
    "state": "MA",
    "country": "US",
    "type": "K12",
    "latitude": 42.4228014,
    "longitude": -71.3149851
  },
  {
    "id": 3706395,
    "idExtended": "3706395",
    "name": "Lincoln R-Ii School District",
    "city": "Lincoln",
    "state": "MO",
    "country": "US",
    "type": "K12",
    "latitude": 38.3929036589573,
    "longitude": -93.33701410506457
  },
  {
    "id": 147255,
    "idExtended": "147255",
    "name": "Lincoln Senior High School",
    "city": "Lincoln",
    "state": "RI",
    "country": "US",
    "type": "K12",
    "latitude": 41.93722085,
    "longitude": -71.45057449508423
  },
  {
    "id": 227726,
    "idExtended": "227726",
    "name": "Lincoln Southeast High School",
    "city": "Lincoln",
    "state": "NE",
    "country": "US",
    "type": "K12",
    "latitude": 40.78265905,
    "longitude": -96.66715840039602
  },
  {
    "id": 188236,
    "idExtended": "188236",
    "name": "Madison Academy",
    "city": "Madison",
    "state": "AL",
    "country": "US",
    "type": "K12",
    "latitude": 34.7033124,
    "longitude": -86.70491283140929
  },
  {
    "id": 192282,
    "idExtended": "192282",
    "name": "Madison Avenue Lower Elementary",
    "city": "Madison",
    "state": "MS",
    "country": "US",
    "type": "K12",
    "latitude": 32.457871466555275,
    "longitude": -90.13877264925118
  },
  {
    "id": 192283,
    "idExtended": "192283",
    "name": "Madison Avenue Upper Elementary",
    "city": "Madison",
    "state": "MS",
    "country": "US",
    "type": "K12",
    "latitude": 32.457871466555275,
    "longitude": -90.13877264925118
  },
  {
    "id": 192284,
    "idExtended": "192284",
    "name": "Madison Central High School",
    "city": "Madison",
    "state": "MS",
    "country": "US",
    "type": "K12",
    "latitude": 32.456592988160175,
    "longitude": -90.15591080801131
  },
  {
    "id": 160488,
    "idExtended": "160488",
    "name": "Madison Central School",
    "city": "Madison",
    "state": "NY",
    "country": "US",
    "type": "K12",
    "latitude": 42.899426,
    "longitude": -75.51632
  },
  {
    "id": 3705747,
    "idExtended": "3705747",
    "name": "Madison Central School District 39-2",
    "city": "Madison",
    "state": "SD",
    "country": "US",
    "type": "K12",
    "latitude": 44.01500438228909,
    "longitude": -97.10852340781658
  },
  {
    "id": 3506644,
    "idExtended": "3506644",
    "name": "Madison City Schools",
    "city": "Madison",
    "state": "AL",
    "country": "US",
    "type": "K12",
    "latitude": 34.68564816659512,
    "longitude": -86.74490715512103
  },
  {
    "id": 3511658,
    "idExtended": "3511658",
    "name": "Madison Consolidated Schools",
    "city": "Madison",
    "state": "IN",
    "country": "US",
    "type": "K12",
    "latitude": 38.77224944606551,
    "longitude": -85.40591664439813
  },
  {
    "id": 182306,
    "idExtended": "182306",
    "name": "Madison County Central School",
    "city": "Madison",
    "state": "FL",
    "country": "US",
    "type": "K12",
    "latitude": 30.47661974706747,
    "longitude": -83.4361750342087
  },
  {
    "id": 170840,
    "idExtended": "170840",
    "name": "Madison County High School",
    "city": "Madison",
    "state": "VA",
    "country": "US",
    "type": "K12",
    "latitude": 38.364782649999995,
    "longitude": -78.26853280350566
  },
  {
    "id": 3501975,
    "idExtended": "3501975",
    "name": "Madison County Public Schools",
    "city": "Madison",
    "state": "VA",
    "country": "US",
    "type": "K12",
    "latitude": 38.37041158600466,
    "longitude": -78.26266632296698
  },
  {
    "id": 172816,
    "idExtended": "172816",
    "name": "Madison Elementary",
    "city": "Madison",
    "state": "WV",
    "country": "US",
    "type": "K12",
    "latitude": 38.06435278873014,
    "longitude": -81.81785890035873
  },
  {
    "id": 188238,
    "idExtended": "188238",
    "name": "Madison Elementary School",
    "city": "Madison",
    "state": "AL",
    "country": "US",
    "type": "K12",
    "latitude": 34.6979733,
    "longitude": -86.75029828163424
  },
  {
    "id": 153252,
    "idExtended": "153252",
    "name": "Madison High School",
    "city": "Madison",
    "state": "NJ",
    "country": "US",
    "type": "K12",
    "latitude": 40.77110715,
    "longitude": -74.40913142618416
  },
  {
    "id": 3494282,
    "idExtended": "3494282",
    "name": "Madison Junior High School",
    "city": "Madison",
    "state": "NJ",
    "country": "US",
    "type": "K12",
    "latitude": 40.76081770882195,
    "longitude": -74.41757216231586
  },
  {
    "id": 3509115,
    "idExtended": "3509115",
    "name": "Madison Local School District",
    "city": "Madison",
    "state": "OH",
    "country": "US",
    "type": "K12",
    "latitude": 40.772583,
    "longitude": -82.45361
  },
  {
    "id": 3515174,
    "idExtended": "3515174",
    "name": "Madison Metropolitan School District",
    "city": "Madison",
    "state": "WI",
    "country": "US",
    "type": "K12",
    "latitude": 43.075769897737764,
    "longitude": -89.38674644839764
  },
  {
    "id": 192285,
    "idExtended": "192285",
    "name": "Madison Middle School",
    "city": "Madison",
    "state": "MS",
    "country": "US",
    "type": "K12",
    "latitude": 32.51520256316129,
    "longitude": -90.18814660524649
  },
  {
    "id": 172817,
    "idExtended": "172817",
    "name": "Madison Middle School",
    "city": "Madison",
    "state": "WV",
    "country": "US",
    "type": "K12",
    "latitude": 38.07178285181647,
    "longitude": -81.82353632569227
  },
  {
    "id": 196521,
    "idExtended": "196521",
    "name": "Madison Middle School",
    "city": "Madison",
    "state": "OH",
    "country": "US",
    "type": "K12",
    "latitude": 41.78913205422925,
    "longitude": -81.0255505297555
  },
  {
    "id": 3527600,
    "idExtended": "3527600",
    "name": "Madison Public Schools",
    "city": "Madison",
    "state": "NE",
    "country": "US",
    "type": "K12",
    "latitude": 41.82472155,
    "longitude": -97.45808159316147
  },
  {
    "id": 192286,
    "idExtended": "192286",
    "name": "Madison Ridgeland Academy",
    "city": "Madison",
    "state": "MS",
    "country": "US",
    "type": "K12",
    "latitude": 32.45616000983468,
    "longitude": -90.1065095696305
  },
  {
    "id": 192287,
    "idExtended": "192287",
    "name": "Madison Station Elementary School",
    "city": "Madison",
    "state": "MS",
    "country": "US",
    "type": "K12",
    "latitude": 32.49372140904972,
    "longitude": -90.16018240949079
  },
  {
    "id": 10010544,
    "idExtended": "10010544",
    "name": "Minneapolis South High School",
    "city": "Minneapolis",
    "state": "MN",
    "country": "US",
    "type": "K12",
    "latitude": 44.9456577,
    "longitude": -93.24359896938631
  },
  {
    "id": 3705383,
    "idExtended": "3705383",
    "name": "Mount Ayr Community School District",
    "city": "Mount Ayr",
    "state": "IA",
    "country": "US",
    "type": "K12",
    "latitude": 40.718228614686964,
    "longitude": -94.23055731263786
  },
  {
    "id": 3499749,
    "idExtended": "3499749",
    "name": "Mount Carmel Area School District",
    "city": "Mount Carmel",
    "state": "PA",
    "country": "US",
    "type": "K12",
    "latitude": 40.79113805,
    "longitude": -76.42215997428681
  },
  {
    "id": 190381,
    "idExtended": "190381",
    "name": "Mount Carmel Elementary School",
    "city": "Mount Carmel",
    "state": "TN",
    "country": "US",
    "type": "K12",
    "latitude": 36.5456914003092,
    "longitude": -82.66008739631037
  },
  {
    "id": 3548929,
    "idExtended": "3548929",
    "name": "Mount Dora Christian Academy",
    "city": "Mount Dora",
    "state": "FL",
    "country": "US",
    "type": "K12",
    "latitude": 28.8080472,
    "longitude": -81.6472723
  },
  {
    "id": 3508682,
    "idExtended": "3508682",
    "name": "Mount Gilead Exempted Village School District",
    "city": "Mount Gilead",
    "state": "OH",
    "country": "US",
    "type": "K12",
    "latitude": 40.5531911,
    "longitude": -82.82921204883834
  },
  {
    "id": 3515145,
    "idExtended": "3515145",
    "name": "Mount Horeb Area School District",
    "city": "Mount Horeb",
    "state": "WI",
    "country": "US",
    "type": "K12",
    "latitude": 43.00729867982683,
    "longitude": -89.7272887307408
  },
  {
    "id": 156492,
    "idExtended": "156492",
    "name": "Mount Kisco Elementary School",
    "city": "Mount Kisco",
    "state": "NY",
    "country": "US",
    "type": "K12",
    "latitude": 41.20252065,
    "longitude": -73.72879139966403
  },
  {
    "id": 3494404,
    "idExtended": "3494404",
    "name": "Mount Laurel Township School District",
    "city": "Mount Laurel",
    "state": "NJ",
    "country": "US",
    "type": "K12",
    "latitude": 39.95719109397919,
    "longitude": -74.92509395393651
  },
  {
    "id": 3497832,
    "idExtended": "3497832",
    "name": "Mount Morris Central School District",
    "city": "Mount Morris",
    "state": "NY",
    "country": "US",
    "type": "K12",
    "latitude": 42.712937,
    "longitude": -77.87404710810647
  },
  {
    "id": 3498592,
    "idExtended": "3498592",
    "name": "Mount Pleasant Area School District",
    "city": "Mount Pleasant",
    "state": "PA",
    "country": "US",
    "type": "K12",
    "latitude": 40.16565785,
    "longitude": -79.534103
  },
  {
    "id": 3514648,
    "idExtended": "3514648",
    "name": "Mount Pleasant Community School District",
    "city": "Mount Pleasant",
    "state": "IA",
    "country": "US",
    "type": "K12",
    "latitude": 40.966966043642664,
    "longitude": -91.54622404140756
  },
  {
    "id": 3531013,
    "idExtended": "3531013",
    "name": "Mount Pleasant Independent School District",
    "city": "Mount Pleasant",
    "state": "TX",
    "country": "US",
    "type": "K12",
    "latitude": 33.27089,
    "longitude": -94.997444
  },
  {
    "id": 3519697,
    "idExtended": "3519697",
    "name": "Mount Prospect School District 57",
    "city": "Mount Prospect",
    "state": "IL",
    "country": "US",
    "type": "K12",
    "latitude": 42.07355699740471,
    "longitude": -87.94411355706566
  },
  {
    "id": 159110,
    "idExtended": "159110",
    "name": "Mount Sinai Elementary School",
    "city": "Mount Sinai",
    "state": "NY",
    "country": "US",
    "type": "K12",
    "latitude": 40.9374832,
    "longitude": -73.0215416894957
  },
  {
    "id": 3499291,
    "idExtended": "3499291",
    "name": "Mount Union Area School District",
    "city": "Mount Union",
    "state": "PA",
    "country": "US",
    "type": "K12",
    "latitude": 40.38821944227787,
    "longitude": -77.87551580689107
  },
  {
    "id": 3495945,
    "idExtended": "3495945",
    "name": "Mount Vernon City School District",
    "city": "Mount Vernon",
    "state": "NY",
    "country": "US",
    "type": "K12",
    "latitude": 40.916152600000004,
    "longitude": -73.82430569633877
  },
  {
    "id": 3508334,
    "idExtended": "3508334",
    "name": "Mount Vernon City School District",
    "city": "Mount Vernon",
    "state": "OH",
    "country": "US",
    "type": "K12",
    "latitude": 40.36493238680969,
    "longitude": -82.47978129843905
  },
  {
    "id": 3514545,
    "idExtended": "3514545",
    "name": "Mount Vernon Community School District",
    "city": "Mount Vernon",
    "state": "IA",
    "country": "US",
    "type": "K12"
  },
  {
    "id": 193717,
    "idExtended": "193717",
    "name": "Mount Vernon Elementary School",
    "city": "Mount Vernon",
    "state": "KY",
    "country": "US",
    "type": "K12",
    "latitude": 37.356867210183324,
    "longitude": -84.34334971633386
  },
  {
    "id": 270559,
    "idExtended": "270559",
    "name": "Mount Vernon High School",
    "city": "Mount Vernon",
    "state": "WA",
    "country": "US",
    "type": "K12",
    "latitude": 48.423959999999994,
    "longitude": -122.3268476608842
  },
  {
    "id": 156510,
    "idExtended": "156510",
    "name": "Mount Vernon High School",
    "city": "Mount Vernon",
    "state": "NY",
    "country": "US",
    "type": "K12",
    "latitude": 40.9256383,
    "longitude": -73.81519221770864
  },
  {
    "id": 195101,
    "idExtended": "195101",
    "name": "Mount Vernon Middle School",
    "city": "Mount Vernon",
    "state": "OH",
    "country": "US",
    "type": "K12",
    "latitude": 40.378126550000005,
    "longitude": -82.47241013683151
  },
  {
    "id": 3543744,
    "idExtended": "3543744",
    "name": "Mount Vernon School District",
    "city": "Mount Vernon",
    "state": "WA",
    "country": "US",
    "type": "K12",
    "latitude": 48.42371675,
    "longitude": -122.33453166055143
  },
  {
    "id": 3502968,
    "idExtended": "3502968",
    "name": "New London Academy Elementary School",
    "city": "Forest",
    "state": "VA",
    "country": "US",
    "type": "K12",
    "latitude": 37.30668,
    "longitude": -79.30588719439689
  },
  {
    "id": 3490594,
    "idExtended": "3490594",
    "name": "North Andover Public Schools",
    "city": "North Andover",
    "state": "MA",
    "country": "US",
    "type": "K12",
    "latitude": 42.68681350353427,
    "longitude": -71.1172054848709
  },
  {
    "id": 3491187,
    "idExtended": "3491187",
    "name": "North Attleborough Public Schools",
    "city": "North Attleboro",
    "state": "MA",
    "country": "US",
    "type": "K12",
    "latitude": 41.981921650000004,
    "longitude": -71.33552772274714
  },
  {
    "id": 158817,
    "idExtended": "158817",
    "name": "North Babylon High School",
    "city": "North Babylon",
    "state": "NY",
    "country": "US",
    "type": "K12",
    "latitude": 40.7263338,
    "longitude": -73.3246520782362
  },
  {
    "id": 151372,
    "idExtended": "151372",
    "name": "North Bergen High School",
    "city": "North Bergen",
    "state": "NJ",
    "country": "US",
    "type": "K12",
    "latitude": 40.77439684309382,
    "longitude": -74.03417004414001
  },
  {
    "id": 3493340,
    "idExtended": "3493340",
    "name": "North Bergen School District",
    "city": "North Bergen",
    "state": "NJ",
    "country": "US",
    "type": "K12",
    "latitude": 40.77439684309382,
    "longitude": -74.03417004414001
  },
  {
    "id": 3495156,
    "idExtended": "3495156",
    "name": "North Brunswick Township School District",
    "city": "North Brunswick",
    "state": "NJ",
    "country": "US",
    "type": "K12",
    "latitude": 40.44523785,
    "longitude": -74.46777465
  },
  {
    "id": 3509905,
    "idExtended": "3509905",
    "name": "North Canton City School District",
    "city": "North Canton",
    "state": "OH",
    "country": "US",
    "type": "K12",
    "latitude": 40.882870369628,
    "longitude": -81.39302211430044
  },
  {
    "id": 150332,
    "idExtended": "150332",
    "name": "North Haven High School",
    "city": "North Haven",
    "state": "CT",
    "country": "US",
    "type": "K12",
    "latitude": 41.3729275,
    "longitude": -72.86224717315824
  },
  {
    "id": 176923,
    "idExtended": "176923",
    "name": "North High School",
    "city": "North",
    "state": "SC",
    "country": "US",
    "type": "K12",
    "latitude": 33.612716226505235,
    "longitude": -81.10653711327954
  },
  {
    "id": 255768,
    "idExtended": "255768",
    "name": "North Hollywood Senior High School",
    "city": "North Hollywood",
    "state": "CA",
    "country": "US",
    "type": "K12",
    "latitude": 34.171026499999996,
    "longitude": -118.38778314999999
  },
  {
    "id": 3528792,
    "idExtended": "3528792",
    "name": "North Little Rock High School",
    "city": "North Little Rock",
    "state": "AR",
    "country": "US",
    "type": "K12",
    "latitude": 34.7758522876289,
    "longitude": -92.27616234893112
  },
  {
    "id": 3706650,
    "idExtended": "3706650",
    "name": "North Little Rock School District",
    "city": "North Little Rock",
    "state": "AR",
    "country": "US",
    "type": "K12",
    "latitude": 34.776718546945254,
    "longitude": -92.26517707695861
  },
  {
    "id": 7585681,
    "idExtended": "7585681",
    "name": "North Middle School",
    "city": "Rapid City",
    "state": "SD",
    "country": "US",
    "type": "K12",
    "latitude": 44.100058000000004,
    "longitude": -103.21370505766546
  },
  {
    "id": 10524273,
    "idExtended": "10524273",
    "name": "North Middle/High",
    "city": "North",
    "state": "SC",
    "country": "US",
    "type": "K12",
    "latitude": 33.6195971,
    "longitude": -81.1062082
  },
  {
    "id": 3509124,
    "idExtended": "3509124",
    "name": "North Olmsted City School District",
    "city": "North Olmsted",
    "state": "OH",
    "country": "US",
    "type": "K12",
    "latitude": 41.41207360069177,
    "longitude": -81.92560591236348
  },
  {
    "id": 3703838,
    "idExtended": "3703838",
    "name": "North Plainfield Borough School District",
    "city": "North Plainfield",
    "state": "NJ",
    "country": "US",
    "type": "K12",
    "latitude": 40.625308236805765,
    "longitude": -74.4332628666764
  },
  {
    "id": 186799,
    "idExtended": "186799",
    "name": "North Port High School",
    "city": "North Port",
    "state": "FL",
    "country": "US",
    "type": "K12",
    "latitude": 27.069253437383338,
    "longitude": -82.21176612786746
  },
  {
    "id": 3509061,
    "idExtended": "3509061",
    "name": "North Ridgeville City Schools",
    "city": "North Ridgeville",
    "state": "OH",
    "country": "US",
    "type": "K12",
    "latitude": 41.388667,
    "longitude": -82.00455466508718
  },
  {
    "id": 3509469,
    "idExtended": "3509469",
    "name": "North Royalton City School District",
    "city": "North Royalton",
    "state": "OH",
    "country": "US",
    "type": "K12",
    "latitude": 41.312833502762764,
    "longitude": -81.75469304856088
  },
  {
    "id": 3501747,
    "idExtended": "3501747",
    "name": "North Springfield Elementary School",
    "city": "Springfield",
    "state": "VA",
    "country": "US",
    "type": "K12",
    "latitude": 38.80154765,
    "longitude": -77.20775875481911
  },
  {
    "id": 3497483,
    "idExtended": "3497483",
    "name": "North Syracuse Central School District",
    "city": "North Syracuse",
    "state": "NY",
    "country": "US",
    "type": "K12",
    "latitude": 43.12357655,
    "longitude": -76.14544293871415
  },
  {
    "id": 3497706,
    "idExtended": "3497706",
    "name": "North Tonawanda City School District",
    "city": "North Tonawanda",
    "state": "NY",
    "country": "US",
    "type": "K12",
    "latitude": 43.04531091331232,
    "longitude": -78.87033247617535
  },
  {
    "id": 10569036,
    "idExtended": "10569036",
    "name": "PREP CLASSES",
    "city": "Katy",
    "state": "TX",
    "country": "US",
    "type": "K12"
  },
  {
    "id": 3544294,
    "idExtended": "3544294",
    "name": "Paideia High School",
    "city": "Valley",
    "state": "WA",
    "country": "US",
    "type": "K12",
    "latitude": 48.184656396759095,
    "longitude": -117.7157311282892
  },
  {
    "id": 3518687,
    "idExtended": "3518687",
    "name": "Park",
    "city": "Livingston",
    "state": "MT",
    "country": "US",
    "type": "K12",
    "latitude": 45.665700038404694,
    "longitude": -110.55209171719251
  },
  {
    "id": 247780,
    "idExtended": "247780",
    "name": "Park City Day School",
    "city": "Park City",
    "state": "UT",
    "country": "US",
    "type": "K12",
    "latitude": 40.748512,
    "longitude": -111.57095
  },
  {
    "id": 194595,
    "idExtended": "194595",
    "name": "Park City Elementary School",
    "city": "Park City",
    "state": "KY",
    "country": "US",
    "type": "K12",
    "latitude": 37.0966158,
    "longitude": -86.0462894
  },
  {
    "id": 247564,
    "idExtended": "247564",
    "name": "Park City High School",
    "city": "Park City",
    "state": "UT",
    "country": "US",
    "type": "K12",
    "latitude": 40.67415770026568,
    "longitude": -111.46933810186512
  },
  {
    "id": 186164,
    "idExtended": "186164",
    "name": "Park Elementary School",
    "city": "Avon Park",
    "state": "FL",
    "country": "US",
    "type": "K12",
    "latitude": 27.607459650000003,
    "longitude": -81.49616163535778
  },
  {
    "id": 3706022,
    "idExtended": "3706022",
    "name": "Park Forest School District 163",
    "city": "Park Forest",
    "state": "IL",
    "country": "US",
    "type": "K12",
    "latitude": 41.47821718630521,
    "longitude": -87.68125773872448
  },
  {
    "id": 168107,
    "idExtended": "168107",
    "name": "Park Hall Elementary",
    "city": "Park Hall",
    "state": "MD",
    "country": "US",
    "type": "K12",
    "latitude": 38.22402,
    "longitude": -76.45198
  },
  {
    "id": 218714,
    "idExtended": "218714",
    "name": "Park Junior High School",
    "city": "La Grange Park",
    "state": "IL",
    "country": "US",
    "type": "K12",
    "latitude": 41.822144565493176,
    "longitude": -87.88116151027417
  },
  {
    "id": 10206573,
    "idExtended": "10206573",
    "name": "Park Maitland School",
    "city": "Winter Park",
    "state": "FL",
    "country": "US",
    "type": "K12"
  },
  {
    "id": 213901,
    "idExtended": "213901",
    "name": "Park Rapids Area Century Middle School",
    "city": "Park Rapids",
    "state": "MN",
    "country": "US",
    "type": "K12",
    "latitude": 46.9275626,
    "longitude": -95.07209188130884
  },
  {
    "id": 3517095,
    "idExtended": "3517095",
    "name": "Park Rapids Public School District",
    "city": "Park Rapids",
    "state": "MN",
    "country": "US",
    "type": "K12",
    "latitude": 46.93028398579672,
    "longitude": -95.06364949002551
  },
  {
    "id": 213902,
    "idExtended": "213902",
    "name": "Park Rapids Senior High School",
    "city": "Park Rapids",
    "state": "MN",
    "country": "US",
    "type": "K12",
    "latitude": 46.93028398579672,
    "longitude": -95.06364949002551
  },
  {
    "id": 3519746,
    "idExtended": "3519746",
    "name": "Park Ridge Community Consolidated School District 64",
    "city": "Park Ridge",
    "state": "IL",
    "country": "US",
    "type": "K12",
    "latitude": 41.9911807009592,
    "longitude": -87.83276861968668
  },
  {
    "id": 152572,
    "idExtended": "152572",
    "name": "Park Ridge High School",
    "city": "Park Ridge",
    "state": "NJ",
    "country": "US",
    "type": "K12",
    "latitude": 41.03414096496558,
    "longitude": -74.04057686056287
  },
  {
    "id": 3494006,
    "idExtended": "3494006",
    "name": "Park Ridge School District",
    "city": "Park Ridge",
    "state": "NJ",
    "country": "US",
    "type": "K12",
    "latitude": 41.03414096496558,
    "longitude": -74.04057686056287
  },
  {
    "id": 3518295,
    "idExtended": "3518295",
    "name": "Park River Area 8",
    "city": "Park River",
    "state": "ND",
    "country": "US",
    "type": "K12",
    "latitude": 48.3931381,
    "longitude": -97.7507847
  },
  {
    "id": 215131,
    "idExtended": "215131",
    "name": "Park River Elementary School",
    "city": "Park River",
    "state": "ND",
    "country": "US",
    "type": "K12",
    "latitude": 48.39263922230213,
    "longitude": -97.75058171698828
  },
  {
    "id": 161747,
    "idExtended": "161747",
    "name": "Paul B D Temple Elementary School",
    "city": "Kennedy",
    "state": "NY",
    "country": "US",
    "type": "K12",
    "latitude": 42.1522625,
    "longitude": -79.09778253944613
  },
  {
    "id": 157809,
    "idExtended": "157809",
    "name": "Poly Prep Country Day School",
    "city": "Brooklyn",
    "state": "NY",
    "country": "US",
    "type": "K12",
    "latitude": 40.612916049999995,
    "longitude": -74.02474013945391
  },
  {
    "id": 10523305,
    "idExtended": "10523305",
    "name": "Prep Academy For Writers",
    "city": "Queens",
    "state": "NY",
    "country": "US",
    "type": "K12",
    "latitude": 40.668174050000005,
    "longitude": -73.75748833824866
  },
  {
    "id": 3550425,
    "idExtended": "3550425",
    "name": "Prep Academy Schools - Dublin",
    "city": "Dublin",
    "state": "OH",
    "country": "US",
    "type": "K12",
    "latitude": 40.09499166538167,
    "longitude": -83.15857624127449
  },
  {
    "id": 195073,
    "idExtended": "195073",
    "name": "Prep Academy Schools Elementary School",
    "city": "Lewis Center",
    "state": "OH",
    "country": "US",
    "type": "K12"
  },
  {
    "id": 192446,
    "idExtended": "192446",
    "name": "Prep Company Tutorial School North",
    "city": "Jackson",
    "state": "MS",
    "country": "US",
    "type": "K12",
    "latitude": 32.3684446906323,
    "longitude": -90.16844998465811
  },
  {
    "id": 158334,
    "idExtended": "158334",
    "name": "Preparatory Academy For Writers",
    "city": "Springfield Gardens",
    "state": "NY",
    "country": "US",
    "type": "K12",
    "latitude": 40.68354122492492,
    "longitude": -73.75128864115587
  },
  {
    "id": 177921,
    "idExtended": "177921",
    "name": "R C Edwards Middle School",
    "city": "Central",
    "state": "SC",
    "country": "US",
    "type": "K12",
    "latitude": 34.72317312575787,
    "longitude": -82.7980642546576
  },
  {
    "id": 258442,
    "idExtended": "258442",
    "name": "Riverside Adult",
    "city": "Riverside",
    "state": "CA",
    "country": "US",
    "type": "K12",
    "latitude": 33.95054965,
    "longitude": -117.39894720000001
  },
  {
    "id": 3540176,
    "idExtended": "3540176",
    "name": "Riverside County Office Of Education",
    "city": "Riverside",
    "state": "CA",
    "country": "US",
    "type": "K12",
    "latitude": 33.975231436366236,
    "longitude": -117.37365509592775
  },
  {
    "id": 153705,
    "idExtended": "153705",
    "name": "Riverside Elementary School",
    "city": "Riverside",
    "state": "NJ",
    "country": "US",
    "type": "K12",
    "latitude": 40.03601456377608,
    "longitude": -74.95452495194709
  },
  {
    "id": 10012008,
    "idExtended": "10012008",
    "name": "Riverside Elementary School District #2",
    "city": "Phoenix",
    "state": "AZ",
    "country": "US",
    "type": "K12",
    "latitude": 33.43368385,
    "longitude": -112.17064752456335
  },
  {
    "id": 10052247,
    "idExtended": "10052247",
    "name": "Riverside High School",
    "city": "Painesville",
    "state": "OH",
    "country": "US",
    "type": "K12",
    "latitude": 41.7130085,
    "longitude": -81.21927
  },
  {
    "id": 10060763,
    "idExtended": "10060763",
    "name": "Riverside High School",
    "city": "Tualatin",
    "state": "OR",
    "country": "US",
    "type": "K12",
    "latitude": 45.37846185,
    "longitude": -122.70647785658423
  },
  {
    "id": 147507,
    "idExtended": "147507",
    "name": "Riverside Middle School",
    "city": "Riverside",
    "state": "RI",
    "country": "US",
    "type": "K12",
    "latitude": 34.90364,
    "longitude": -82.2489
  },
  {
    "id": 153707,
    "idExtended": "153707",
    "name": "Riverside Middle School",
    "city": "Riverside",
    "state": "NJ",
    "country": "US",
    "type": "K12",
    "latitude": 40.03601456377608,
    "longitude": -74.95452495194709
  },
  {
    "id": 10287586,
    "idExtended": "10287586",
    "name": "Riverside Preparatory Academy",
    "city": "Gainesville",
    "state": "GA",
    "country": "US",
    "type": "K12",
    "latitude": 34.33258325,
    "longitude": -83.83330407778632
  },
  {
    "id": 150934,
    "idExtended": "150934",
    "name": "Riverside School",
    "city": "Riverside",
    "state": "CT",
    "country": "US",
    "type": "K12",
    "latitude": 41.03250215,
    "longitude": -73.5799247919175
  },
  {
    "id": 3706058,
    "idExtended": "3706058",
    "name": "Riverside School District 96",
    "city": "Riverside",
    "state": "IL",
    "country": "US",
    "type": "K12",
    "latitude": 41.831305900000004,
    "longitude": -87.8226231
  },
  {
    "id": 258462,
    "idExtended": "258462",
    "name": "Riverside Stem Academy",
    "city": "Riverside",
    "state": "CA",
    "country": "US",
    "type": "K12",
    "latitude": 33.96917405000001,
    "longitude": -117.31293555657896
  },
  {
    "id": 3494466,
    "idExtended": "3494466",
    "name": "Riverside Township School District",
    "city": "Riverside",
    "state": "NJ",
    "country": "US",
    "type": "K12",
    "latitude": 40.03601456377608,
    "longitude": -74.95452495194709
  },
  {
    "id": 3540180,
    "idExtended": "3540180",
    "name": "Riverside Unified School District",
    "city": "Riverside",
    "state": "CA",
    "country": "US",
    "type": "K12",
    "latitude": 33.973757,
    "longitude": -117.3747270111187
  },
  {
    "id": 258446,
    "idExtended": "258446",
    "name": "Riverside Virtual School",
    "city": "Riverside",
    "state": "CA",
    "country": "US",
    "type": "K12",
    "latitude": 33.94044665,
    "longitude": -117.38023630599898
  },
  {
    "id": 3499795,
    "idExtended": "3499795",
    "name": "Saint Clair Area School District",
    "city": "Saint Clair",
    "state": "PA",
    "country": "US",
    "type": "K12",
    "latitude": 40.716236156797386,
    "longitude": -76.18584184675909
  },
  {
    "id": 159170,
    "idExtended": "159170",
    "name": "Saint James Elementary School",
    "city": "Saint James",
    "state": "NY",
    "country": "US",
    "type": "K12",
    "latitude": 40.8832717,
    "longitude": -73.1581406
  },
  {
    "id": 215204,
    "idExtended": "215204",
    "name": "Saint John Public School",
    "city": "Saint John",
    "state": "ND",
    "country": "US",
    "type": "K12",
    "latitude": 48.94256688606127,
    "longitude": -99.70913728349129
  },
  {
    "id": 2020899,
    "idExtended": "2020899",
    "name": "Saint John Vianney Catholic School",
    "city": "Saint Petersburg",
    "state": "FL",
    "country": "US",
    "type": "K12",
    "latitude": 27.848280131644366,
    "longitude": -82.65401736719862
  },
  {
    "id": 3498681,
    "idExtended": "3498681",
    "name": "Saint Marys Area School District",
    "city": "Saint Marys",
    "state": "PA",
    "country": "US",
    "type": "K12",
    "latitude": 41.4266211734638,
    "longitude": -78.56136726146721
  },
  {
    "id": 181139,
    "idExtended": "181139",
    "name": "Saint Marys Elementary School",
    "city": "Saint Marys",
    "state": "GA",
    "country": "US",
    "type": "K12"
  },
  {
    "id": 2020898,
    "idExtended": "2020898",
    "name": "Saint Paul Catholic School",
    "city": "Saint Petersburg",
    "state": "FL",
    "country": "US",
    "type": "K12",
    "latitude": 27.797522843529926,
    "longitude": -82.65022499983216
  },
  {
    "id": 211978,
    "idExtended": "211978",
    "name": "Saint Paul Music Academy",
    "city": "Saint Paul",
    "state": "MN",
    "country": "US",
    "type": "K12",
    "latitude": 44.9760521,
    "longitude": -93.100285860607
  },
  {
    "id": 175908,
    "idExtended": "175908",
    "name": "Saint Pauls Elementary",
    "city": "Saint Pauls",
    "state": "NC",
    "country": "US",
    "type": "K12"
  },
  {
    "id": 175910,
    "idExtended": "175910",
    "name": "Saint Pauls Middle School",
    "city": "Saint Pauls",
    "state": "NC",
    "country": "US",
    "type": "K12",
    "latitude": 34.81059551591014,
    "longitude": -78.97506161908494
  },
  {
    "id": 2020901,
    "idExtended": "2020901",
    "name": "Saint Petersburg Catholic High School",
    "city": "Saint Petersburg",
    "state": "FL",
    "country": "US",
    "type": "K12",
    "latitude": 27.78084313235341,
    "longitude": -82.73148334318421
  },
  {
    "id": 10509848,
    "idExtended": "10509848",
    "name": "School",
    "city": "Plain City",
    "state": "OH",
    "country": "US",
    "type": "K12",
    "latitude": 40.18485175,
    "longitude": -83.19512311606047
  },
  {
    "id": 156736,
    "idExtended": "156736",
    "name": "School 29",
    "city": "Yonkers",
    "state": "NY",
    "country": "US",
    "type": "K12",
    "latitude": 40.97778505,
    "longitude": -73.83445771158793
  },
  {
    "id": 3706046,
    "idExtended": "3706046",
    "name": "School Association For Special Education In Dupage - Sased",
    "city": "Lisle",
    "state": "IL",
    "country": "US",
    "type": "K12",
    "latitude": 41.80096085,
    "longitude": -88.07752185
  },
  {
    "id": 3706998,
    "idExtended": "3706998",
    "name": "School At St George Place",
    "city": "Houston",
    "state": "TX",
    "country": "US",
    "type": "K12",
    "latitude": 29.7361598,
    "longitude": -95.47246602533613
  },
  {
    "id": 3511103,
    "idExtended": "3511103",
    "name": "School City Of East Chicago",
    "city": "East Chicago",
    "state": "IN",
    "country": "US",
    "type": "K12",
    "latitude": 41.63359088998085,
    "longitude": -87.45204805012354
  },
  {
    "id": 3511118,
    "idExtended": "3511118",
    "name": "School City Of Hammond",
    "city": "Hammond",
    "state": "IN",
    "country": "US",
    "type": "K12",
    "latitude": 41.6117459,
    "longitude": -87.52430751033864
  },
  {
    "id": 3511146,
    "idExtended": "3511146",
    "name": "School City Of Hobart",
    "city": "Hobart",
    "state": "IN",
    "country": "US",
    "type": "K12",
    "latitude": 41.52719836033812,
    "longitude": -87.25450595872802
  },
  {
    "id": 3704990,
    "idExtended": "3704990",
    "name": "School City Of Mishawaka",
    "city": "Mishawaka",
    "state": "IN",
    "country": "US",
    "type": "K12",
    "latitude": 41.659066568266105,
    "longitude": -86.18062137570094
  },
  {
    "id": 3520213,
    "idExtended": "3520213",
    "name": "School District 45 Dupage County",
    "city": "Villa Park",
    "state": "IL",
    "country": "US",
    "type": "K12",
    "latitude": 41.89792030184269,
    "longitude": -87.98697027130997
  },
  {
    "id": 3515085,
    "idExtended": "3515085",
    "name": "School District Of Belleville",
    "city": "Belleville",
    "state": "WI",
    "country": "US",
    "type": "K12",
    "latitude": 42.8578408,
    "longitude": -89.53938735474362
  },
  {
    "id": 3494269,
    "idExtended": "3494269",
    "name": "School District Of The Chathams",
    "city": "Chatham",
    "state": "NJ",
    "country": "US",
    "type": "K12",
    "latitude": 40.738735862527825,
    "longitude": -74.4535499057165
  },
  {
    "id": 3519988,
    "idExtended": "3519988",
    "name": "School District U-46",
    "city": "Elgin",
    "state": "IL",
    "country": "US",
    "type": "K12",
    "latitude": 42.036778850000005,
    "longitude": -88.27783122098
  },
  {
    "id": 3488058,
    "idExtended": "3488058",
    "name": "School Of St Mary",
    "city": "Lake Forest",
    "state": "IL",
    "country": "US",
    "type": "K12",
    "latitude": 42.2486528,
    "longitude": -87.84259116749011
  },
  {
    "id": 161530,
    "idExtended": "161530",
    "name": "School Of The Arts",
    "city": "Rochester",
    "state": "NY",
    "country": "US",
    "type": "K12",
    "latitude": 43.158678949999995,
    "longitude": -77.59055961256024
  },
  {
    "id": 169008,
    "idExtended": "169008",
    "name": "School Of The Incarnation",
    "city": "Gambrills",
    "state": "MD",
    "country": "US",
    "type": "K12",
    "latitude": 39.04686,
    "longitude": -76.69183
  },
  {
    "id": 3525692,
    "idExtended": "3525692",
    "name": "School Of The Osage",
    "city": "Lake Ozark",
    "state": "MO",
    "country": "US",
    "type": "K12",
    "latitude": 38.1956708,
    "longitude": -92.63900027982125
  },
  {
    "id": 10038796,
    "idExtended": "10038796",
    "name": "School of Science and Technology - Schertz",
    "city": "Schertz",
    "state": "TX",
    "country": "US",
    "type": "K12",
    "latitude": 29.613800559288013,
    "longitude": -98.2392388299873
  },
  {
    "id": 3507481,
    "idExtended": "3507481",
    "name": "Scott Central Attendance Center - K12 School",
    "city": "Forest",
    "state": "MS",
    "country": "US",
    "type": "K12",
    "latitude": 32.454468,
    "longitude": -89.47156
  },
  {
    "id": 3507480,
    "idExtended": "3507480",
    "name": "Scott County School District",
    "city": "Forest",
    "state": "MS",
    "country": "US",
    "type": "K12",
    "latitude": 32.36460810006204,
    "longitude": -89.4818512413678
  },
  {
    "id": 3704997,
    "idExtended": "3704997",
    "name": "South Bend Community School Corporation (District)",
    "city": "South Bend",
    "state": "IN",
    "country": "US",
    "type": "K12",
    "latitude": 41.679769848876404,
    "longitude": -86.25045153753764
  },
  {
    "id": 146129,
    "idExtended": "146129",
    "name": "South Boston Catholic Academy",
    "city": "South Boston",
    "state": "MA",
    "country": "US",
    "type": "K12",
    "latitude": 42.336327350000005,
    "longitude": -71.02949732259168
  },
  {
    "id": 3492476,
    "idExtended": "3492476",
    "name": "South Burlington School District",
    "city": "South Burlington",
    "state": "VT",
    "country": "US",
    "type": "K12",
    "latitude": 44.45687835,
    "longitude": -73.17683425484041
  },
  {
    "id": 254105,
    "idExtended": "254105",
    "name": "South East High School",
    "city": "South Gate",
    "state": "CA",
    "country": "US",
    "type": "K12",
    "latitude": 33.944034450000004,
    "longitude": -118.22295128167171
  },
  {
    "id": 256047,
    "idExtended": "256047",
    "name": "South El Monte High School",
    "city": "South El Monte",
    "state": "CA",
    "country": "US",
    "type": "K12",
    "latitude": 34.0361221,
    "longitude": -118.0445116
  },
  {
    "id": 217650,
    "idExtended": "217650",
    "name": "South Elgin High School",
    "city": "South Elgin",
    "state": "IL",
    "country": "US",
    "type": "K12",
    "latitude": 42.00117055,
    "longitude": -88.28306903374568
  },
  {
    "id": 254107,
    "idExtended": "254107",
    "name": "South Gate Middle School",
    "city": "South Gate",
    "state": "CA",
    "country": "US",
    "type": "K12",
    "latitude": 33.951904299999995,
    "longitude": -118.1980577581439
  },
  {
    "id": 254108,
    "idExtended": "254108",
    "name": "South Gate Senior High School",
    "city": "South Gate",
    "state": "CA",
    "country": "US",
    "type": "K12",
    "latitude": 33.9564043,
    "longitude": -118.20921452333093
  },
  {
    "id": 3497345,
    "idExtended": "3497345",
    "name": "South Glens Falls Central School District",
    "city": "South Glens Falls",
    "state": "NY",
    "country": "US",
    "type": "K12",
    "latitude": 43.285944,
    "longitude": -73.62078458656362
  },
  {
    "id": 144550,
    "idExtended": "144550",
    "name": "South Hadley High School",
    "city": "South Hadley",
    "state": "MA",
    "country": "US",
    "type": "K12",
    "latitude": 42.22845685,
    "longitude": -72.58541240291376
  },
  {
    "id": 239675,
    "idExtended": "239675",
    "name": "South Houston High School",
    "city": "South Houston",
    "state": "TX",
    "country": "US",
    "type": "K12",
    "latitude": 29.660699566056582,
    "longitude": -95.20822737631646
  },
  {
    "id": 3512334,
    "idExtended": "3512334",
    "name": "South Lyon Community Schools",
    "city": "South Lyon",
    "state": "MI",
    "country": "US",
    "type": "K12",
    "latitude": 42.45859880499592,
    "longitude": -83.6546111629015
  },
  {
    "id": 3498188,
    "idExtended": "3498188",
    "name": "South Park Elementary Center",
    "city": "South Park",
    "state": "PA",
    "country": "US",
    "type": "K12",
    "latitude": 40.30089045,
    "longitude": -79.98724057410021
  },
  {
    "id": 254970,
    "idExtended": "254970",
    "name": "South Pasadena Middle School",
    "city": "South Pasadena",
    "state": "CA",
    "country": "US",
    "type": "K12",
    "latitude": 34.10459011386857,
    "longitude": -118.15052267604071
  },
  {
    "id": 254971,
    "idExtended": "254971",
    "name": "South Pasadena Senior High School",
    "city": "South Pasadena",
    "state": "CA",
    "country": "US",
    "type": "K12",
    "latitude": 34.115670449999996,
    "longitude": -118.15308635
  },
  {
    "id": 3493465,
    "idExtended": "3493465",
    "name": "South Plainfield School District",
    "city": "South Plainfield",
    "state": "NJ",
    "country": "US",
    "type": "K12",
    "latitude": 40.57127065,
    "longitude": -74.41688988761268
  },
  {
    "id": 148534,
    "idExtended": "148534",
    "name": "South Portland High School",
    "city": "South Portland",
    "state": "ME",
    "country": "US",
    "type": "K12",
    "latitude": 43.62192585,
    "longitude": -70.26832625859416
  },
  {
    "id": 155014,
    "idExtended": "155014",
    "name": "South River Primary School",
    "city": "South River",
    "state": "NJ",
    "country": "US",
    "type": "K12",
    "latitude": 40.43723575279749,
    "longitude": -74.38225365325938
  },
  {
    "id": 262079,
    "idExtended": "262079",
    "name": "South San Francisco High School",
    "city": "South San Francisco",
    "state": "CA",
    "country": "US",
    "type": "K12",
    "latitude": 37.651403645116105,
    "longitude": -122.42918286815987
  },
  {
    "id": 3541152,
    "idExtended": "3541152",
    "name": "South San Francisco Unified School District",
    "city": "South San Francisco",
    "state": "CA",
    "country": "US",
    "type": "K12",
    "latitude": 37.651403645116105,
    "longitude": -122.42918286815987
  },
  {
    "id": 3527627,
    "idExtended": "3527627",
    "name": "South Sioux City Community Schools",
    "city": "South Sioux City",
    "state": "NE",
    "country": "US",
    "type": "K12",
    "latitude": 42.45170076918272,
    "longitude": -96.4219364424257
  },
  {
    "id": 3515930,
    "idExtended": "3515930",
    "name": "South St Paul Secondary",
    "city": "South Saint Paul",
    "state": "MN",
    "country": "US",
    "type": "K12",
    "latitude": 44.89276965,
    "longitude": -93.04194335904262
  },
  {
    "id": 149723,
    "idExtended": "149723",
    "name": "South Windsor High School",
    "city": "South Windsor",
    "state": "CT",
    "country": "US",
    "type": "K12",
    "latitude": 41.84308235,
    "longitude": -72.55408803587778
  },
  {
    "id": 144658,
    "idExtended": "144658",
    "name": "Springfield Central High School",
    "city": "Springfield",
    "state": "MA",
    "country": "US",
    "type": "K12",
    "latitude": 42.1308908,
    "longitude": -72.54862131463099
  },
  {
    "id": 222168,
    "idExtended": "222168",
    "name": "Springfield Christian School",
    "city": "Springfield",
    "state": "IL",
    "country": "US",
    "type": "K12",
    "latitude": 39.806729250000004,
    "longitude": -89.70810626743585
  },
  {
    "id": 3510518,
    "idExtended": "3510518",
    "name": "Springfield City School District",
    "city": "Springfield",
    "state": "OH",
    "country": "US",
    "type": "K12",
    "latitude": 39.928238,
    "longitude": -83.79426
  },
  {
    "id": 229075,
    "idExtended": "229075",
    "name": "Springfield Elementary School",
    "city": "Springfield",
    "state": "LA",
    "country": "US",
    "type": "K12",
    "latitude": 30.426441428901445,
    "longitude": -90.56441674906448
  },
  {
    "id": 180954,
    "idExtended": "180954",
    "name": "Springfield Elementary School",
    "city": "Springfield",
    "state": "GA",
    "country": "US",
    "type": "K12",
    "latitude": 32.405919976241236,
    "longitude": -81.31716213809004
  },
  {
    "id": 170371,
    "idExtended": "170371",
    "name": "Springfield Estates Elementary School",
    "city": "Springfield",
    "state": "VA",
    "country": "US",
    "type": "K12",
    "latitude": 38.78324258687652,
    "longitude": -77.16453265527814
  },
  {
    "id": 165766,
    "idExtended": "165766",
    "name": "Springfield High School",
    "city": "Springfield",
    "state": "PA",
    "country": "US",
    "type": "K12",
    "latitude": 39.9290582283238,
    "longitude": -75.34029139858323
  },
  {
    "id": 189769,
    "idExtended": "189769",
    "name": "Springfield High School",
    "city": "Springfield",
    "state": "TN",
    "country": "US",
    "type": "K12",
    "latitude": 44.053524,
    "longitude": -123.01581
  },
  {
    "id": 222209,
    "idExtended": "222209",
    "name": "Springfield High School",
    "city": "Springfield",
    "state": "IL",
    "country": "US",
    "type": "K12",
    "latitude": 39.8008371,
    "longitude": -89.661107
  },
  {
    "id": 229076,
    "idExtended": "229076",
    "name": "Springfield High School",
    "city": "Springfield",
    "state": "LA",
    "country": "US",
    "type": "K12",
    "latitude": 44.053524,
    "longitude": -123.01581
  },
  {
    "id": 10245189,
    "idExtended": "10245189",
    "name": "Springfield Prep Charter School",
    "city": "Springfield",
    "state": "MA",
    "country": "US",
    "type": "K12",
    "latitude": 42.138177400000004,
    "longitude": -72.54682580373446
  },
  {
    "id": 3516807,
    "idExtended": "3516807",
    "name": "Springfield Public School District",
    "city": "Springfield",
    "state": "MN",
    "country": "US",
    "type": "K12",
    "latitude": 44.23444100300722,
    "longitude": -94.98195407041325
  },
  {
    "id": 3490254,
    "idExtended": "3490254",
    "name": "Springfield Public Schools",
    "city": "Springfield",
    "state": "MA",
    "country": "US",
    "type": "K12",
    "latitude": 42.1032204,
    "longitude": -72.59303525277655
  },
  {
    "id": 3543297,
    "idExtended": "3543297",
    "name": "Springfield Public Schools",
    "city": "Springfield",
    "state": "OR",
    "country": "US",
    "type": "K12",
    "latitude": 44.04738255,
    "longitude": -123.01765556578246
  },
  {
    "id": 3526286,
    "idExtended": "3526286",
    "name": "Springfield R-Xii School District",
    "city": "Springfield",
    "state": "MO",
    "country": "US",
    "type": "K12",
    "latitude": 37.209258070968424,
    "longitude": -93.26031739361056
  },
  {
    "id": 3500310,
    "idExtended": "3500310",
    "name": "Springfield School District",
    "city": "Springfield",
    "state": "PA",
    "country": "US",
    "type": "K12",
    "latitude": 39.9290582283238,
    "longitude": -75.34029139858323
  },
  {
    "id": 3523657,
    "idExtended": "3523657",
    "name": "Springfield School District 186",
    "city": "Springfield",
    "state": "IL",
    "country": "US",
    "type": "K12",
    "latitude": 39.796221149999994,
    "longitude": -89.6930542
  },
  {
    "id": 222190,
    "idExtended": "222190",
    "name": "Springfield Southeast High School",
    "city": "Springfield",
    "state": "IL",
    "country": "US",
    "type": "K12",
    "latitude": 39.7786739,
    "longitude": -89.6206318
  },
  {
    "id": 3488973,
    "idExtended": "3488973",
    "name": "St Mary Catholic School - West",
    "city": "West",
    "state": "TX",
    "country": "US",
    "type": "K12",
    "latitude": 31.800972041572017,
    "longitude": -97.09628516655826
  },
  {
    "id": 189238,
    "idExtended": "189238",
    "name": "Temple Christian School",
    "city": "Valley",
    "state": "AL",
    "country": "US",
    "type": "K12",
    "latitude": 32.7838519,
    "longitude": -85.19412595
  },
  {
    "id": 3549639,
    "idExtended": "3549639",
    "name": "The King's Academy - Clewiston",
    "city": "West Palm Beach",
    "state": "FL",
    "country": "US",
    "type": "K12",
    "latitude": 26.691088167578442,
    "longitude": -80.07823510096544
  },
  {
    "id": 237830,
    "idExtended": "237830",
    "name": "The Kinkaid School",
    "city": "Houston",
    "state": "TX",
    "country": "US",
    "type": "K12",
    "latitude": 29.749163,
    "longitude": -95.5108
  },
  {
    "id": 167450,
    "idExtended": "167450",
    "name": "The Lab School Of Washington",
    "city": "Washington",
    "state": "DC",
    "country": "US",
    "type": "K12",
    "latitude": 38.9154627,
    "longitude": -77.09252431379363
  },
  {
    "id": 10251853,
    "idExtended": "10251853",
    "name": "The Pennsylvania State University",
    "city": "State College",
    "state": "PA",
    "country": "US",
    "type": "K12",
    "latitude": 40.7944504,
    "longitude": -77.8616386
  },
  {
    "id": 3545593,
    "idExtended": "3545593",
    "name": "The Spence School",
    "city": "New York",
    "state": "NY",
    "country": "US",
    "type": "K12",
    "latitude": 40.784046,
    "longitude": -73.9571
  },
  {
    "id": 3502969,
    "idExtended": "3502969",
    "name": "Thomas Jefferson Elementary School",
    "city": "Forest",
    "state": "VA",
    "country": "US",
    "type": "K12",
    "latitude": 37.3567466,
    "longitude": -79.28801558503403
  },
  {
    "id": 172615,
    "idExtended": "172615",
    "name": "Timberlake Christian Schools",
    "city": "Forest",
    "state": "VA",
    "country": "US",
    "type": "K12",
    "latitude": 37.3395035,
    "longitude": -79.2596442
  },
  {
    "id": 3518817,
    "idExtended": "3518817",
    "name": "Valley",
    "city": "Glasgow",
    "state": "MT",
    "country": "US",
    "type": "K12"
  },
  {
    "id": 3544293,
    "idExtended": "3544293",
    "name": "Valley Early Learning Center",
    "city": "Valley",
    "state": "WA",
    "country": "US",
    "type": "K12",
    "latitude": 48.184656396759095,
    "longitude": -117.7157311282892
  },
  {
    "id": 272013,
    "idExtended": "272013",
    "name": "Valley Elem/Middle School",
    "city": "Valley",
    "state": "WA",
    "country": "US",
    "type": "K12",
    "latitude": 48.184656396759095,
    "longitude": -117.7157311282892
  },
  {
    "id": 189239,
    "idExtended": "189239",
    "name": "Valley High School",
    "city": "Valley",
    "state": "AL",
    "country": "US",
    "type": "K12",
    "latitude": 36.137318,
    "longitude": -115.1208
  },
  {
    "id": 3544292,
    "idExtended": "3544292",
    "name": "Valley School District",
    "city": "Valley",
    "state": "WA",
    "country": "US",
    "type": "K12",
    "latitude": 48.184656396759095,
    "longitude": -117.7157311282892
  },
  {
    "id": 189240,
    "idExtended": "189240",
    "name": "W F Burns Middle School",
    "city": "Valley",
    "state": "AL",
    "country": "US",
    "type": "K12",
    "latitude": 32.80542776417994,
    "longitude": -85.19632584094352
  },
  {
    "id": 260122,
    "idExtended": "260122",
    "name": "Waldorf School Of Santa Barbara, The",
    "city": "Goleta",
    "state": "CA",
    "country": "US",
    "type": "K12",
    "latitude": 34.43814765,
    "longitude": -119.88606755696311
  },
  {
    "id": 151869,
    "idExtended": "151869",
    "name": "Washington",
    "city": "Nutley",
    "state": "NJ",
    "country": "US",
    "type": "K12",
    "latitude": 40.809780032074265,
    "longitude": -74.14620121683073
  },
  {
    "id": 151549,
    "idExtended": "151549",
    "name": "Washington",
    "city": "Rutherford",
    "state": "NJ",
    "country": "US",
    "type": "K12",
    "latitude": 40.83284497346099,
    "longitude": -74.10769453771734
  },
  {
    "id": 151938,
    "idExtended": "151938",
    "name": "Washington",
    "city": "Roselle",
    "state": "NJ",
    "country": "US",
    "type": "K12",
    "latitude": 40.6506181,
    "longitude": -74.2755012
  },
  {
    "id": 144645,
    "idExtended": "144645",
    "name": "Washington",
    "city": "Springfield",
    "state": "MA",
    "country": "US",
    "type": "K12",
    "latitude": 42.08268435,
    "longitude": -72.54973592935484
  },
  {
    "id": 3705078,
    "idExtended": "3705078",
    "name": "Washington Community Schools Inc",
    "city": "Washington",
    "state": "IN",
    "country": "US",
    "type": "K12",
    "latitude": 38.6561075292401,
    "longitude": -87.17160049664031
  },
  {
    "id": 222834,
    "idExtended": "222834",
    "name": "Washington High School",
    "city": "Washington",
    "state": "MO",
    "country": "US",
    "type": "K12",
    "latitude": 38.5476944,
    "longitude": -91.00900611747602
  },
  {
    "id": 167461,
    "idExtended": "167461",
    "name": "Washington International School",
    "city": "Washington",
    "state": "DC",
    "country": "US",
    "type": "K12",
    "latitude": 38.9324529,
    "longitude": -77.06178015775714
  },
  {
    "id": 3501230,
    "idExtended": "3501230",
    "name": "Washington Latin Public Charter Middle School",
    "city": "Washington",
    "state": "DC",
    "country": "US",
    "type": "K12",
    "latitude": 38.954008849999994,
    "longitude": -77.01401710710266
  },
  {
    "id": 3498410,
    "idExtended": "3498410",
    "name": "Washington Park Elementary School",
    "city": "Washington",
    "state": "PA",
    "country": "US",
    "type": "K12",
    "latitude": 40.16493048937028,
    "longitude": -80.22360529561871
  },
  {
    "id": 3529389,
    "idExtended": "3529389",
    "name": "Washington Public Schools",
    "city": "Washington",
    "state": "OK",
    "country": "US",
    "type": "K12"
  },
  {
    "id": 3498411,
    "idExtended": "3498411",
    "name": "Washington School District",
    "city": "Washington",
    "state": "PA",
    "country": "US",
    "type": "K12",
    "latitude": 40.17696582121268,
    "longitude": -80.2560488513245
  },
  {
    "id": 3524079,
    "idExtended": "3524079",
    "name": "Washington West Elementary School",
    "city": "Washington",
    "state": "MO",
    "country": "US",
    "type": "K12",
    "latitude": 38.55579405,
    "longitude": -91.0410004317904
  },
  {
    "id": 167573,
    "idExtended": "167573",
    "name": "Washington Yu Ying Pcs",
    "city": "Washington",
    "state": "DC",
    "country": "US",
    "type": "K12",
    "latitude": 38.9412695,
    "longitude": -77.00365205306949
  },
  {
    "id": 234832,
    "idExtended": "234832",
    "name": "Wesley Prep",
    "city": "Dallas",
    "state": "TX",
    "country": "US",
    "type": "K12",
    "latitude": 32.8673176,
    "longitude": -96.8211933
  },
  {
    "id": 205953,
    "idExtended": "205953",
    "name": "West",
    "city": "Holland",
    "state": "MI",
    "country": "US",
    "type": "K12",
    "latitude": 42.77569992321738,
    "longitude": -86.12189391418089
  },
  {
    "id": 3703986,
    "idExtended": "3703986",
    "name": "West Babylon Union Free School District",
    "city": "West Babylon",
    "state": "NY",
    "country": "US",
    "type": "K12",
    "latitude": 40.70508288128655,
    "longitude": -73.3461529515912
  },
  {
    "id": 3514809,
    "idExtended": "3514809",
    "name": "West Bend School District",
    "city": "West Bend",
    "state": "WI",
    "country": "US",
    "type": "K12",
    "latitude": 43.41385,
    "longitude": -88.18076
  },
  {
    "id": 3512661,
    "idExtended": "3512661",
    "name": "West Bloomfield School District",
    "city": "West Bloomfield",
    "state": "MI",
    "country": "US",
    "type": "K12",
    "latitude": 42.590553299999996,
    "longitude": -83.39813985771501
  },
  {
    "id": 3514172,
    "idExtended": "3514172",
    "name": "West Des Moines Community School District",
    "city": "West Des Moines",
    "state": "IA",
    "country": "US",
    "type": "K12",
    "latitude": 41.56681195,
    "longitude": -93.75744468698181
  },
  {
    "id": 237343,
    "idExtended": "237343",
    "name": "West Elementary",
    "city": "West",
    "state": "TX",
    "country": "US",
    "type": "K12",
    "latitude": 31.81150631619061,
    "longitude": -97.09145954349177
  },
  {
    "id": 10524775,
    "idExtended": "10524775",
    "name": "West Elementary School",
    "city": "West",
    "state": "TX",
    "country": "US",
    "type": "K12",
    "latitude": 31.8034812,
    "longitude": -97.0933471
  },
  {
    "id": 10524686,
    "idExtended": "10524686",
    "name": "West Elementary School",
    "city": "West",
    "state": "TX",
    "country": "US",
    "type": "K12",
    "latitude": 31.8034812,
    "longitude": -97.0933471
  },
  {
    "id": 3518239,
    "idExtended": "3518239",
    "name": "West Fargo Public Schools",
    "city": "West Fargo",
    "state": "ND",
    "country": "US",
    "type": "K12",
    "latitude": 46.87702373070232,
    "longitude": -96.92352907096014
  },
  {
    "id": 3492853,
    "idExtended": "3492853",
    "name": "West Hartford School District",
    "city": "West Hartford",
    "state": "CT",
    "country": "US",
    "type": "K12",
    "latitude": 41.758528,
    "longitude": -72.74174753292121
  },
  {
    "id": 150503,
    "idExtended": "150503",
    "name": "West Haven High School",
    "city": "West Haven",
    "state": "CT",
    "country": "US",
    "type": "K12"
  },
  {
    "id": 237344,
    "idExtended": "237344",
    "name": "West High School",
    "city": "West",
    "state": "TX",
    "country": "US",
    "type": "K12",
    "latitude": 31.823388232674947,
    "longitude": -97.0866866085235
  },
  {
    "id": 3532009,
    "idExtended": "3532009",
    "name": "West Independent School District",
    "city": "West",
    "state": "TX",
    "country": "US",
    "type": "K12",
    "latitude": 31.81112680353741,
    "longitude": -97.09477950574289
  },
  {
    "id": 3497083,
    "idExtended": "3497083",
    "name": "West Islip Union Free School District",
    "city": "West Islip",
    "state": "NY",
    "country": "US",
    "type": "K12",
    "latitude": 40.704458055173646,
    "longitude": -73.30474806720912
  },
  {
    "id": 237345,
    "idExtended": "237345",
    "name": "West Middle School",
    "city": "West",
    "state": "TX",
    "country": "US",
    "type": "K12",
    "latitude": 31.823388232674947,
    "longitude": -97.0866866085235
  },
  {
    "id": 230068,
    "idExtended": "230068",
    "name": "West Monroe High School",
    "city": "West Monroe",
    "state": "LA",
    "country": "US",
    "type": "K12",
    "latitude": 32.5116232,
    "longitude": -92.14011361078104
  },
  {
    "id": 151407,
    "idExtended": "151407",
    "name": "West Orange High School",
    "city": "West Orange",
    "state": "NJ",
    "country": "US",
    "type": "K12",
    "latitude": 40.8070445,
    "longitude": -74.2601472
  },
  {
    "id": 258497,
    "idExtended": "258497",
    "name": "West Riverside Elementary",
    "city": "Riverside",
    "state": "CA",
    "country": "US",
    "type": "K12",
    "latitude": 33.99579528568257,
    "longitude": -117.41961800174367
  },
  {
    "id": 10245222,
    "idExtended": "10245222",
    "name": "West Seneca Central Schools",
    "city": "West Seneca",
    "state": "NY",
    "country": "US",
    "type": "K12",
    "latitude": 42.83191724435285,
    "longitude": -78.77893758793805
  },
  {
    "id": 170395,
    "idExtended": "170395",
    "name": "West Springfield Elementary School",
    "city": "Springfield",
    "state": "VA",
    "country": "US",
    "type": "K12",
    "latitude": 38.76903945,
    "longitude": -77.21899886842581
  },
  {
    "id": 170396,
    "idExtended": "170396",
    "name": "West Springfield High School",
    "city": "Springfield",
    "state": "VA",
    "country": "US",
    "type": "K12",
    "latitude": 38.78631015,
    "longitude": -77.24016368703039
  },
  {
    "id": 10037545,
    "idExtended": "10037545",
    "name": "YES Prep Hobby",
    "city": "Houston",
    "state": "TX",
    "country": "US",
    "type": "K12",
    "latitude": 29.656046280911365,
    "longitude": -95.25824575488642
  },
  {
    "id": 3532188,
    "idExtended": "3532188",
    "name": "Yes Prep - Southside",
    "city": "Houston",
    "state": "TX",
    "country": "US",
    "type": "K12",
    "latitude": 29.684062949999998,
    "longitude": -95.34645975000001
  },
  {
    "id": 237946,
    "idExtended": "237946",
    "name": "Yes Prep North Central Campus",
    "city": "Houston",
    "state": "TX",
    "country": "US",
    "type": "K12",
    "latitude": 29.91403735,
    "longitude": -95.35620940701682
  },
  {
    "id": 238037,
    "idExtended": "238037",
    "name": "Yes Prep North Forest School",
    "city": "Houston",
    "state": "TX",
    "country": "US",
    "type": "K12",
    "latitude": 29.899363460672955,
    "longitude": -95.29440119612326
  },
  {
    "id": 237856,
    "idExtended": "237856",
    "name": "Yes Prep Northside",
    "city": "Houston",
    "state": "TX",
    "country": "US",
    "type": "K12",
    "latitude": 29.80250015,
    "longitude": -95.34222825
  },
  {
    "id": 237897,
    "idExtended": "237897",
    "name": "Yes Prep Southeast Campus",
    "city": "Houston",
    "state": "TX",
    "country": "US",
    "type": "K12",
    "latitude": 29.639525499999998,
    "longitude": -95.20689243408376
  },
  {
    "id": 238462,
    "idExtended": "238462",
    "name": "Yes Prep White Oak",
    "city": "Houston",
    "state": "TX",
    "country": "US",
    "type": "K12",
    "latitude": 29.8501124,
    "longitude": -95.47182572487623
  }
]